$GPGLL,,,,,,V,N*64
$GPBOD,,T,,M,BARO W,*2E
$GPBWC,,6017.2000,N,02041.8000,E,,T,,M,,N,BARO W,N*2B
$GPVTG,,T,,M,,N,,K*4E
$GPXTE,V,V,,,N,N*5E
$PGRME,,M,,M,,M*00
$PGRMZ,,f,1*29
$PGRMM,WGS 84*06
$GPRTE,1,1,c,*37
$GPRMC,,V,,,,,,,060215,5.3,E,N*3E
$GPRMB,V,,,,BARO W,6017.2000,N,02041.8000,E,,,,V,N*5B
$GPGGA,,,,,,0,00,,,M,,M,,*66
$GPGSA,A,1,,,,,,,,,,,,,,,*1E
$GPGSV,3,1,11,01,14,048,00,11,13,029,00,12,17,229,00,15,53,223,00*77
$GPGLL,,,,,,V,N*64
$GPBOD,,T,,M,BARO W,*2E
$GPBWC,,6017.2000,N,02041.8000,E,,T,,M,,N,BARO W,N*2B
$GPVTG,,T,,M,,N,,K*4E
$GPXTE,V,V,,,N,N*5E
$PGRME,,M,,M,,M*00
$PGRMZ,,f,1*29
$PGRMM,WGS 84*06
$GPRTE,1,1,c,*37
$GPRMC,,V,,,,,,,060215,5.3,E,N*3E
$GPRMB,V,,,,BARO W,6017.2000,N,02041.8000,E,,,,V,N*5B
$GPGGA,,,,,,8,00,,,M,,M,,*6E
$GPGSA,A,1,,,,,,,,,,,,,,,*1E
$GPGSV,3,2,10,17,44,108,46,18,21,286,41,22,17,326,40,24,45,277,46*75
$GPGLL,,,,,,V,N*64
$GPBOD,,T,,M,BARO W,*2E
$GPBWC,,6017.2000,N,02041.8000,E,,T,,M,,N,BARO W,N*2B
$GPVTG,,T,,M,,N,,K*4E
$GPXTE,V,V,,,N,N*5E
$PGRME,,M,,M,,M*00
$PGRMZ,,f,1*29
$PGRMM,WGS 84*06
$GPRTE,1,1,c,*37
$GPRMC,,V,,,,,,,,,,N*53
$GPRMB,V,,,,,,,,,,,,,N*52
$GPRMC,174812,V,6017.5857,N,02040.0082,E,0.0,0.0,060215,5.3,E,S*12
$GPRMB,V,0.02,L,,BARO W,6017.2000,N,02041.8000,E,0.970,113.5,,V,S*1E
$GPGGA,174812,6017.5857,N,02040.0082,E,8,10,2.0,-21.6,M,21.0,M,,*59
$GPGSA,A,3,01,11,12,15,17,18,22,24,26,28,,,3.6,2.0,3.0*37
$GPGSV,3,3,10,26,30,169,45,28,38,065,45*73
$GPGLL,6017.5857,N,02040.0082,E,174812,V,S*48
$GPBOD,114.4,T,109.1,M,BARO W,*27
$GPBWC,174812,6017.2000,N,02041.8000,E,113.5,T,108.2,M,0.970,N,BARO W,S*12
$GPVTG,0.0,T,354.7,M,0.0,N,0.0,K*4B
$GPXTE,V,V,0.02,L,N,S*13
$PGRME,15.0,M,22.5,M,27.0,M*1A
$PGRMZ,-71,f,3*00
$PGRMM,WGS 84*06
$GPRTE,1,1,c,*37
$GPRMC,174814,V,6017.5857,N,02040.0082,E,0.0,0.0,060215,5.3,E,S*14
$GPRMB,V,0.02,L,,BARO W,6017.2000,N,02041.8000,E,0.970,113.5,,V,S*1E
$GPGGA,174814,6017.5857,N,02040.0082,E,8,10,2.0,-21.6,M,21.0,M,,*5F
$GPGSA,A,3,01,11,12,15,17,18,22,24,26,28,,,3.6,2.0,3.0*37
$GPGSV,3,1,10,01,14,048,39,11,13,029,39,12,17,229,40,15,53,222,48*7F
$GPGLL,6017.5857,N,02040.0082,E,174814,V,S*4E
$GPBOD,114.4,T,109.1,M,BARO W,*27
$GPBWC,174814,6017.2000,N,02041.8000,E,113.5,T,108.2,M,0.970,N,BARO W,S*14
$GPVTG,0.0,T,354.7,M,0.0,N,0.0,K*4B
$GPXTE,V,V,0.02,L,N,S*13
$PGRME,15.0,M,22.5,M,27.0,M*1A
$PGRMZ,-71,f,3*00
$PGRMM,WGS 84*06
$GPRTE,1,1,c,*37
$GPRMC,174816,V,6017.5857,N,02040.0082,E,0.0,0.0,060215,5.3,E,S*16
$GPRMB,V,0.02,L,,BARO W,6017.2000,N,02041.8000,E,0.970,113.5,,V,S*1E
$GPGGA,174816,6017.5857,N,02040.0082,E,8,10,2.0,-21.6,M,21.0,M,,*5D
$GPGSA,A,3,01,11,12,15,17,18,22,24,26,28,,,3.6,2.0,3.0*37
$GPGSV,3,2,10,17,44,108,47,18,21,286,41,22,17,326,40,24,45,277,47*75
$GPGLL,6017.5857,N,02040.0082,E,174816,V,S*4C
$GPBOD,114.4,T,109.1,M,BARO W,*27
$GPBWC,174816,6017.2000,N,02041.8000,E,113.5,T,108.2,M,0.970,N,BARO W,S*16
$GPVTG,0.0,T,354.7,M,0.0,N,0.0,K*4B
$GPXTE,V,V,0.02,L,N,S*13
$PGRME,15.0,M,22.5,M,27.0,M*1A
$PGRMZ,-71,f,3*00
$PGRMM,WGS 84*06
$GPRTE,1,1,c,*37
$GPRMC,174818,V,6017.5857,N,02040.0082,E,0.0,0.0,060215,5.3,E,S*18
$GPRMB,V,0.02,L,,BARO W,6017.2000,N,02041.8000,E,0.970,113.5,,V,S*1E
$GPGGA,174818,6017.5857,N,02040.0082,E,8,10,2.0,-21.6,M,21.0,M,,*53
$GPGSA,A,3,01,11,12,15,17,18,22,24,26,28,,,3.6,2.0,3.0*37
$GPGSV,3,3,10,26,30,169,44,28,38,065,45*72
$GPGLL,6017.5857,N,02040.0082,E,174818,V,S*42
$GPBOD,114.4,T,109.1,M,BARO W,*27
$GPBWC,174818,6017.2000,N,02041.8000,E,113.5,T,108.2,M,0.970,N,BARO W,S*18
$GPVTG,0.0,T,354.7,M,0.0,N,0.0,K*4B
$GPXTE,V,V,0.02,L,N,S*13
$PGRME,15.0,M,22.5,M,27.0,M*1A
$PGRMZ,-71,f,3*00
$PGRMM,WGS 84*06
$GPRTE,1,1,c,*37
$GPRMC,174820,V,6017.5857,N,02040.0082,E,0.0,0.0,060215,5.3,E,S*13
$GPRMB,V,0.02,L,,BARO W,6017.2000,N,02041.8000,E,0.970,113.5,,V,S*1E
$GPGGA,174820,6017.5857,N,02040.0082,E,8,10,2.0,-21.6,M,21.0,M,,*58
$GPGSA,A,3,01,11,12,15,17,18,22,24,26,28,,,3.6,2.0,3.0*37
$GPGSV,3,1,10,01,14,048,39,11,13,029,39,12,17,229,40,15,53,222,48*7F
$GPGLL,6017.5857,N,02040.0082,E,174820,V,S*49
$GPBOD,114.4,T,109.1,M,BARO W,*27
$GPBWC,174820,6017.2000,N,02041.8000,E,113.5,T,108.2,M,0.970,N,BARO W,S*13
$GPVTG,0.0,T,354.7,M,0.0,N,0.0,K*4B
$GPXTE,V,V,0.02,L,N,S*13
$PGRME,15.0,M,22.5,M,27.0,M*1A
$PGRMZ,-71,f,3*00
$PGRMM,WGS 84*06
$GPRTE,1,1,c,*37
$GPRMC,174822,V,6017.5857,N,02040.0082,E,0.0,0.0,060215,5.3,E,S*11
$GPRMB,V,0.02,L,,BARO W,6017.2000,N,02041.8000,E,0.970,113.5,,V,S*1E
$GPGGA,174822,6017.5857,N,02040.0082,E,8,10,2.0,-21.6,M,21.0,M,,*5A
$GPGSA,A,3,01,11,12,15,17,18,22,24,26,28,,,3.6,2.0,3.0*37
$GPGSV,3,2,10,17,44,108,46,18,21,286,41,22,17,326,40,24,45,277,47*74
$GPGLL,6017.5857,N,02040.0082,E,174822,V,S*4B
$GPBOD,114.4,T,109.1,M,BARO W,*27
$GPBWC,174822,6017.2000,N,02041.8000,E,113.5,T,108.2,M,0.970,N,BARO W,S*11
$GPVTG,0.0,T,354.7,M,0.0,N,0.0,K*4B
$GPXTE,V,V,0.02,L,N,S*13
$PGRME,15.0,M,22.5,M,27.0,M*1A
$PGRMZ,-71,f,3*00
$PGRMM,WGS 84*06
$GPRTE,1,1,c,*37
$GPRMC,174824,V,6017.5857,N,02040.0082,E,0.0,0.0,060215,5.3,E,S*17
$GPRMB,V,0.02,L,,BARO W,6017.2000,N,02041.8000,E,0.970,113.5,,V,S*1E
$GPGGA,174824,6017.5857,N,02040.0082,E,8,10,2.0,-21.6,M,21.0,M,,*5C
$GPGSA,A,3,01,11,12,15,17,18,22,24,26,28,,,3.6,2.0,3.0*37
$GPGSV,3,3,10,26,30,169,44,28,38,065,46*71
$GPGLL,6017.5857,N,02040.0082,E,174824,V,S*4D
$GPBOD,114.4,T,109.1,M,BARO W,*27
$GPBWC,174824,6017.2000,N,02041.8000,E,113.5,T,108.2,M,0.970,N,BARO W,S*17
$GPVTG,0.0,T,354.7,M,0.0,N,0.0,K*4B
$GPXTE,V,V,0.02,L,N,S*13
$PGRME,15.0,M,22.5,M,27.0,M*1A
$PGRMZ,-71,f,3*00
$PGRMM,WGS 84*06
$GPRTE,1,1,c,*37
$GPRMC,174826,V,6017.5857,N,02040.0082,E,0.0,0.0,060215,5.3,E,S*15
$GPRMB,V,0.02,L,,BARO W,6017.2000,N,02041.8000,E,0.970,113.5,,V,S*1E
$GPGGA,174826,6017.5857,N,02040.0082,E,8,10,2.0,-21.6,M,21.0,M,,*5E
$GPGSA,A,3,01,11,12,15,17,18,22,24,26,28,,,3.6,2.0,3.0*37
$GPGSV,3,1,10,01,14,048,39,11,13,029,39,12,17,229,40,15,53,222,48*7F
$GPGLL,6017.5857,N,02040.0082,E,174826,V,S*4F
$GPBOD,114.4,T,109.1,M,BARO W,*27
$GPBWC,174826,6017.2000,N,02041.8000,E,113.5,T,108.2,M,0.970,N,BARO W,S*15
$GPVTG,0.0,T,354.7,M,0.0,N,0.0,K*4B
$GPXTE,V,V,0.02,L,N,S*13
$PGRME,15.0,M,22.5,M,27.0,M*1A
$PGRMZ,-71,f,3*00
$PGRMM,WGS 84*06
$GPRTE,1,1,c,*37
$GPRMC,174828,V,6017.5857,N,02040.0082,E,0.0,0.0,060215,5.3,E,S*1B
$GPRMB,V,0.02,L,,BARO W,6017.2000,N,02041.8000,E,0.970,113.5,,V,S*1E
$GPGGA,174828,6017.5857,N,02040.0082,E,8,10,2.0,-21.6,M,21.0,M,,*50
$GPGSA,A,3,01,11,12,15,17,18,22,24,26,28,,,3.6,2.0,3.0*37
$GPGSV,3,2,10,17,44,108,47,18,21,286,41,22,17,326,40,24,45,277,46*74
$GPGLL,6017.5857,N,02040.0082,E,174828,V,S*41
$GPBOD,114.4,T,109.1,M,BARO W,*27
$GPBWC,174828,6017.2000,N,02041.8000,E,113.5,T,108.2,M,0.970,N,BARO W,S*1B
$GPVTG,0.0,T,354.7,M,0.0,N,0.0,K*4B
$GPXTE,V,V,0.02,L,N,S*13
$PGRME,15.0,M,22.5,M,27.0,M*1A
$PGRMZ,-71,f,3*00
$PGRMM,WGS 84*06
$GPRTE,1,1,c,*37
$GPRMC,174830,V,6017.5857,N,02040.0082,E,0.0,0.0,060215,5.3,E,S*12
$GPRMB,V,0.02,L,,BARO W,6017.2000,N,02041.8000,E,0.970,113.5,,V,S*1E
$GPGGA,174830,6017.5857,N,02040.0082,E,8,10,2.0,-21.6,M,21.0,M,,*59
$GPGSA,A,3,01,11,12,15,17,18,22,24,26,28,,,3.6,2.0,3.0*37
$GPGSV,3,3,10,26,30,169,44,28,38,065,45*72
$GPGLL,6017.5857,N,02040.0082,E,174830,V,S*48
$GPBOD,114.4,T,109.1,M,BARO W,*27
$GPBWC,174830,6017.2000,N,02041.8000,E,113.5,T,108.2,M,0.970,N,BARO W,S*12
$GPVTG,0.0,T,354.7,M,0.0,N,0.0,K*4B
$GPXTE,V,V,0.02,L,N,S*13
$PGRME,15.0,M,22.5,M,27.0,M*1A
$PGRMZ,-71,f,3*00
$PGRMM,WGS 84*06
$GPRTE,1,1,c,*37
$GPRMC,174832,V,6017.5857,N,02040.0082,E,0.0,0.0,060215,5.3,E,S*10
$GPRMB,V,0.02,L,,BARO W,6017.2000,N,02041.8000,E,0.970,113.5,,V,S*1E
$GPGGA,174832,6017.5857,N,02040.0082,E,8,10,2.0,-21.6,M,21.0,M,,*5B
$GPGSA,A,3,01,11,12,15,17,18,22,24,26,28,,,3.6,2.0,3.0*37
$GPGSV,3,1,10,01,14,048,39,11,13,029,39,12,17,229,40,15,53,222,48*7F
$GPGLL,6017.5857,N,02040.0082,E,174832,V,S*4A
$GPBOD,114.4,T,109.1,M,BARO W,*27
$GPBWC,174832,6017.2000,N,02041.8000,E,113.5,T,108.2,M,0.970,N,BARO W,S*10
$GPVTG,0.0,T,354.7,M,0.0,N,0.0,K*4B
$GPXTE,V,V,0.02,L,N,S*13
$PGRME,15.0,M,22.5,M,27.0,M*1A
$PGRMZ,-71,f,3*00
$PGRMM,WGS 84*06
$GPRTE,1,1,c,*37
$GPRMC,174834,V,6017.5857,N,02040.0082,E,0.0,0.0,060215,5.3,E,S*16
$GPRMB,V,0.02,L,,BARO W,6017.2000,N,02041.8000,E,0.970,113.5,,V,S*1E
$GPGGA,174834,6017.5857,N,02040.0082,E,8,10,2.0,-21.6,M,21.0,M,,*5D
$GPGSA,A,3,01,11,12,15,17,18,22,24,26,28,,,3.6,2.0,3.0*37
$GPGSV,3,2,10,17,44,108,47,18,21,286,42,22,17,326,40,24,45,277,47*76
$GPGLL,6017.5857,N,02040.0082,E,174834,V,S*4C
$GPBOD,114.4,T,109.1,M,BARO W,*27
$GPBWC,174834,6017.2000,N,02041.8000,E,113.5,T,108.2,M,0.970,N,BARO W,S*16
$GPVTG,0.0,T,354.7,M,0.0,N,0.0,K*4B
$GPXTE,V,V,0.02,L,N,S*13
$PGRME,15.0,M,22.5,M,27.0,M*1A
$PGRMZ,-71,f,3*00
$PGRMM,WGS 84*06
$GPRTE,1,1,c,*37
$GPRMC,174836,V,6017.5857,N,02040.0082,E,0.0,0.0,060215,5.3,E,S*14
$GPRMB,V,0.02,L,,BARO W,6017.2000,N,02041.8000,E,0.970,113.5,,V,S*1E
$GPGGA,174836,6017.5857,N,02040.0082,E,8,10,2.0,-21.6,M,21.0,M,,*5F
$GPGSA,A,3,01,11,12,15,17,18,22,24,26,28,,,3.6,2.0,3.0*37
$GPGSV,3,3,10,26,30,169,44,28,38,065,45*72
$GPGLL,6017.5857,N,02040.0082,E,174836,V,S*4E
$GPBOD,114.4,T,109.1,M,BARO W,*27
$GPBWC,174836,6017.2000,N,02041.8000,E,113.5,T,108.2,M,0.970,N,BARO W,S*14
$GPVTG,0.0,T,354.7,M,0.0,N,0.0,K*4B
$GPXTE,V,V,0.02,L,N,S*13
$PGRME,15.0,M,22.5,M,27.0,M*1A
$PGRMZ,-71,f,3*00
$PGRMM,WGS 84*06
$GPRTE,1,1,c,*37
$GPRMC,174838,V,6017.5857,N,02040.0082,E,0.0,0.0,060215,5.3,E,S*1A
$GPRMB,V,0.02,L,,BARO W,6017.2000,N,02041.8000,E,0.970,113.5,,V,S*1E
$GPGGA,174838,6017.5857,N,02040.0082,E,8,10,2.0,-21.6,M,21.0,M,,*51
$GPGSA,A,3,01,11,12,15,17,18,22,24,26,28,,,3.6,2.0,3.0*37
$GPGSV,3,1,10,01,14,048,40,11,13,029,39,12,17,229,40,15,53,222,48*71
$GPGLL,6017.5857,N,02040.0082,E,174838,V,S*40
$GPBOD,114.4,T,109.1,M,BARO W,*27
$GPBWC,174838,6017.2000,N,02041.8000,E,113.5,T,108.2,M,0.970,N,BARO W,S*1A
$GPVTG,0.0,T,354.7,M,0.0,N,0.0,K*4B
$GPXTE,V,V,0.02,L,N,S*13
$PGRME,15.0,M,22.5,M,27.0,M*1A
$PGRMZ,-71,f,3*00
$PGRMM,WGS 84*06
$GPRTE,1,1,c,*37
$GPRMC,174840,V,6017.5857,N,02040.0082,E,0.0,0.0,060215,5.3,E,S*15
$GPRMB,V,0.02,L,,BARO W,6017.2000,N,02041.8000,E,0.970,113.5,,V,S*1E
$GPGGA,174840,6017.5857,N,02040.0082,E,8,10,2.0,-21.6,M,21.0,M,,*5E
$GPGSA,A,3,01,11,12,15,17,18,22,24,26,28,,,3.6,2.0,3.0*37
$GPGSV,3,2,10,17,44,108,46,18,21,286,41,22,17,326,40,24,45,277,47*74
$GPGLL,6017.5857,N,02040.0082,E,174840,V,S*4F
$GPBOD,114.4,T,109.1,M,BARO W,*27
$GPBWC,174840,6017.2000,N,02041.8000,E,113.5,T,108.2,M,0.970,N,BARO W,S*15
$GPVTG,0.0,T,354.7,M,0.0,N,0.0,K*4B
$GPXTE,V,V,0.02,L,N,S*13
$PGRME,15.0,M,22.5,M,27.0,M*1A
$PGRMZ,-71,f,3*00
$PGRMM,WGS 84*06
$GPRTE,1,1,c,*37
$GPRMC,174842,V,6017.5857,N,02040.0082,E,0.0,0.0,060215,5.3,E,S*17
$GPRMB,V,0.02,L,,BARO W,6017.2000,N,02041.8000,E,0.970,113.5,,V,S*1E
$GPGGA,174842,6017.5857,N,02040.0082,E,8,10,2.0,-21.6,M,21.0,M,,*5C
$GPGSA,A,3,01,11,12,15,17,18,22,24,26,28,,,3.6,2.0,3.0*37
$GPGSV,3,3,10,26,30,169,43,28,38,065,45*75
$GPGLL,6017.5857,N,02040.0082,E,174842,V,S*4D
$GPBOD,114.4,T,109.1,M,BARO W,*27
$GPBWC,174842,6017.2000,N,02041.8000,E,113.5,T,108.2,M,0.970,N,BARO W,S*17
$GPVTG,0.0,T,354.7,M,0.0,N,0.0,K*4B
$GPXTE,V,V,0.02,L,N,S*13
$PGRME,15.0,M,22.5,M,27.0,M*1A
$PGRMZ,-71,f,3*00
$PGRMM,WGS 84*06
$GPRTE,1,1,c,*37
$GPRMC,174844,V,6017.5857,N,02040.0082,E,0.0,0.0,060215,5.3,E,S*11
$GPRMB,V,0.02,L,,BARO W,6017.2000,N,02041.8000,E,0.970,113.5,,V,S*1E
$GPGGA,174844,6017.5857,N,02040.0082,E,8,10,2.0,-21.6,M,21.0,M,,*5A
$GPGSA,A,3,01,11,12,15,17,18,22,24,26,28,,,3.6,2.0,3.0*37
$GPGSV,3,1,10,01,14,048,39,11,13,029,38,12,17,229,40,15,53,222,48*7E
$GPGLL,6017.5857,N,02040.0082,E,174844,V,S*4B
$GPBOD,114.4,T,109.1,M,BARO W,*27
$GPBWC,174844,6017.2000,N,02041.8000,E,113.5,T,108.2,M,0.970,N,BARO W,S*11
$GPVTG,0.0,T,354.7,M,0.0,N,0.0,K*4B
$GPXTE,V,V,0.02,L,N,S*13
$PGRME,15.0,M,22.5,M,27.0,M*1A
$PGRMZ,-71,f,3*00
$PGRMM,WGS 84*06
$GPRTE,1,1,c,*37
$GPRMC,174846,V,6017.5857,N,02040.0082,E,0.0,0.0,060215,5.3,E,S*13
$GPRMB,V,0.02,L,,BARO W,6017.2000,N,02041.8000,E,0.970,113.5,,V,S*1E
$GPGGA,174846,6017.5857,N,02040.0082,E,8,10,2.0,-21.6,M,21.0,M,,*58
$GPGSA,A,3,01,11,12,15,17,18,22,24,26,28,,,3.6,2.0,3.0*37
$GPGSV,3,2,10,17,44,108,46,18,21,286,41,22,17,326,40,24,45,277,46*75
$GPGLL,6017.5857,N,02040.0082,E,174846,V,S*49
$GPBOD,114.4,T,109.1,M,BARO W,*27
$GPBWC,174846,6017.2000,N,02041.8000,E,113.5,T,108.2,M,0.970,N,BARO W,S*13
$GPVTG,0.0,T,354.7,M,0.0,N,0.0,K*4B
$GPXTE,V,V,0.02,L,N,S*13
$PGRME,15.0,M,22.5,M,27.0,M*1A
$PGRMZ,-71,f,3*00
$PGRMM,WGS 84*06
$GPRTE,1,1,c,*37
$GPRMC,174848,V,6017.5857,N,02040.0082,E,0.0,0.0,060215,5.3,E,S*1D
$GPRMB,V,0.02,L,,BARO W,6017.2000,N,02041.8000,E,0.970,113.5,,V,S*1E
$GPGGA,174848,6017.5857,N,02040.0082,E,8,10,2.0,-21.6,M,21.0,M,,*56
$GPGSA,A,3,01,11,12,15,17,18,22,24,26,28,,,3.6,2.0,3.0*37
$GPGSV,3,3,10,26,30,169,44,28,38,065,46*71
$GPGLL,6017.5857,N,02040.0082,E,174848,V,S*47
$GPBOD,114.4,T,109.1,M,BARO W,*27
$GPBWC,174848,6017.2000,N,02041.8000,E,113.5,T,108.2,M,0.970,N,BARO W,S*1D
$GPVTG,0.0,T,354.7,M,0.0,N,0.0,K*4B
$GPXTE,V,V,0.02,L,N,S*13
$PGRME,15.0,M,22.5,M,27.0,M*1A
$PGRMZ,-71,f,3*00
$PGRMM,WGS 84*06
$GPRTE,1,1,c,*37
$GPRMC,174850,V,6017.5857,N,02040.0082,E,0.0,0.0,060215,5.3,E,S*14
$GPRMB,V,0.02,L,,BARO W,6017.2000,N,02041.8000,E,0.970,113.5,,V,S*1E
$GPGGA,174850,6017.5857,N,02040.0082,E,8,10,2.0,-21.6,M,21.0,M,,*5F
$GPGSA,A,3,01,11,12,15,17,18,22,24,26,28,,,3.6,2.0,3.0*37
$GPGSV,3,1,10,01,14,048,39,11,13,029,39,12,17,229,40,15,53,222,48*7F
$GPGLL,6017.5857,N,02040.0082,E,174850,V,S*4E
$GPBOD,114.4,T,109.1,M,BARO W,*27
$GPBWC,174850,6017.2000,N,02041.8000,E,113.5,T,108.2,M,0.970,N,BARO W,S*14
$GPVTG,0.0,T,354.7,M,0.0,N,0.0,K*4B
$GPXTE,V,V,0.02,L,N,S*13
$PGRME,15.0,M,22.5,M,27.0,M*1A
$PGRMZ,-71,f,3*00
$PGRMM,WGS 84*06
$GPRTE,1,1,c,*37
$GPRMC,174852,V,6017.5857,N,02040.0082,E,0.0,0.0,060215,5.3,E,S*16
$GPRMB,V,0.02,L,,BARO W,6017.2000,N,02041.8000,E,0.970,113.5,,V,S*1E
$GPGGA,174852,6017.5857,N,02040.0082,E,8,10,2.0,-21.6,M,21.0,M,,*5D
$GPGSA,A,3,01,11,12,15,17,18,22,24,26,28,,,3.6,2.0,3.0*37
$GPGSV,3,2,10,17,44,108,46,18,21,286,41,22,17,326,40,24,45,277,46*75
$GPGLL,6017.5857,N,02040.0082,E,174852,V,S*4C
$GPBOD,114.4,T,109.1,M,BARO W,*27
$GPBWC,174852,6017.2000,N,02041.8000,E,113.5,T,108.2,M,0.970,N,BARO W,S*16
$GPVTG,0.0,T,354.7,M,0.0,N,0.0,K*4B
$GPXTE,V,V,0.02,L,N,S*13
$PGRME,15.0,M,22.5,M,27.0,M*1A
$PGRMZ,-71,f,3*00
$PGRMM,WGS 84*06
$GPRTE,1,1,c,*37
$GPRMC,174854,V,6017.5857,N,02040.0082,E,0.0,0.0,060215,5.3,E,S*10
$GPRMB,V,0.02,L,,BARO W,6017.2000,N,02041.8000,E,0.970,113.5,,V,S*1E
$GPGGA,174854,6017.5857,N,02040.0082,E,8,10,2.0,-21.6,M,21.0,M,,*5B
$GPGSA,A,3,01,11,12,15,17,18,22,24,26,28,,,3.6,2.0,3.0*37
$GPGSV,3,3,10,26,30,169,44,28,38,065,46*71
$GPGLL,6017.5857,N,02040.0082,E,174854,V,S*4A
$GPBOD,114.4,T,109.1,M,BARO W,*27
$GPBWC,174854,6017.2000,N,02041.8000,E,113.5,T,108.2,M,0.970,N,BARO W,S*10
$GPVTG,0.0,T,354.7,M,0.0,N,0.0,K*4B
$GPXTE,V,V,0.02,L,N,S*13
$PGRME,15.0,M,22.5,M,27.0,M*1A
$PGRMZ,-71,f,3*00
$PGRMM,WGS 84*06
$GPRTE,1,1,c,*37
$GPRMC,174856,V,6017.5857,N,02040.0082,E,0.0,0.0,060215,5.3,E,S*12
$GPRMB,V,0.02,L,,BARO W,6017.2000,N,02041.8000,E,0.970,113.5,,V,S*1E
$GPGGA,174856,6017.5857,N,02040.0082,E,8,10,2.0,-21.6,M,21.0,M,,*59
$GPGSA,A,3,01,11,12,15,17,18,22,24,26,28,,,3.6,2.0,3.0*37
$GPGSV,3,1,10,01,14,048,39,11,13,029,39,12,18,229,41,15,53,222,48*71
$GPGLL,6017.5857,N,02040.0082,E,174856,V,S*48
$GPBOD,114.4,T,109.1,M,BARO W,*27
$GPBWC,174856,6017.2000,N,02041.8000,E,113.5,T,108.2,M,0.970,N,BARO W,S*12
$GPVTG,0.0,T,354.7,M,0.0,N,0.0,K*4B
$GPXTE,V,V,0.02,L,N,S*13
$PGRME,15.0,M,22.5,M,27.0,M*1A
$PGRMZ,-71,f,3*00
$PGRMM,WGS 84*06
$GPRTE,1,1,c,*37
$GPRMC,174858,V,6017.5857,N,02040.0082,E,0.0,0.0,060215,5.3,E,S*1C
$GPRMB,V,0.02,L,,BARO W,6017.2000,N,02041.8000,E,0.970,113.5,,V,S*1E
$GPGGA,174858,6017.5857,N,02040.0082,E,8,10,2.0,-21.6,M,21.0,M,,*57
$GPGSA,A,3,01,11,12,15,17,18,22,24,26,28,,,3.6,2.0,3.0*37
$GPGSV,3,2,10,17,44,108,46,18,21,286,41,22,17,326,40,24,45,277,47*74
$GPGLL,6017.5857,N,02040.0082,E,174858,V,S*46
$GPBOD,114.4,T,109.1,M,BARO W,*27
$GPBWC,174858,6017.2000,N,02041.8000,E,113.5,T,108.2,M,0.970,N,BARO W,S*1C
$GPVTG,0.0,T,354.7,M,0.0,N,0.0,K*4B
$GPXTE,V,V,0.02,L,N,S*13
$PGRME,15.0,M,22.5,M,27.0,M*1A
$PGRMZ,-71,f,3*00
$PGRMM,WGS 84*06
$GPRTE,1,1,c,*37
$GPRMC,174900,V,6017.5857,N,02040.0082,E,0.0,0.0,060215,5.3,E,S*10
$GPRMB,V,0.02,L,,BARO W,6017.2000,N,02041.8000,E,0.970,113.5,,V,S*1E
$GPGGA,174900,6017.5857,N,02040.0082,E,8,10,2.0,-21.6,M,21.0,M,,*5B
$GPGSA,A,3,01,11,12,15,17,18,22,24,26,28,,,3.6,2.0,3.0*37
$GPGSV,3,3,10,26,30,169,44,28,38,065,45*72
$GPGLL,6017.5857,N,02040.0082,E,174900,V,S*4A
$GPBOD,114.4,T,109.1,M,BARO W,*27
$GPBWC,174900,6017.2000,N,02041.8000,E,113.5,T,108.2,M,0.970,N,BARO W,S*10
$GPVTG,0.0,T,354.7,M,0.0,N,0.0,K*4B
$GPXTE,V,V,0.02,L,N,S*13
$PGRME,15.0,M,22.5,M,27.0,M*1A
$PGRMZ,-71,f,3*00
$PGRMM,WGS 84*06
$GPRTE,1,1,c,*37
$GPRMC,174902,V,6017.5857,N,02040.0082,E,0.0,0.0,060215,5.3,E,S*12
$GPRMB,V,0.02,L,,BARO W,6017.2000,N,02041.8000,E,0.970,113.5,,V,S*1E
$GPGGA,174902,6017.5857,N,02040.0082,E,8,10,2.0,-21.6,M,21.0,M,,*59
$GPGSA,A,3,01,11,12,15,17,18,22,24,26,28,,,3.6,2.0,3.0*37
$GPGSV,3,1,10,01,14,048,39,11,13,029,39,12,18,229,40,15,53,222,48*70
$GPGLL,6017.5857,N,02040.0082,E,174902,V,S*48
$GPBOD,114.4,T,109.1,M,BARO W,*27
$GPBWC,174902,6017.2000,N,02041.8000,E,113.5,T,108.2,M,0.970,N,BARO W,S*12
$GPVTG,0.0,T,354.7,M,0.0,N,0.0,K*4B
$GPXTE,V,V,0.02,L,N,S*13
$PGRME,15.0,M,22.5,M,27.0,M*1A
$PGRMZ,-71,f,3*00
$PGRMM,WGS 84*06
$GPRTE,1,1,c,*37
$GPRMC,174904,V,6017.5857,N,02040.0082,E,0.0,0.0,060215,5.3,E,S*14
$GPRMB,V,0.02,L,,BARO W,6017.2000,N,02041.8000,E,0.970,113.5,,V,S*1E
$GPGGA,174904,6017.5857,N,02040.0082,E,8,10,2.0,-21.6,M,21.0,M,,*5F
$GPGSA,A,3,01,11,12,15,17,18,22,24,26,28,,,3.6,2.0,3.0*37
$GPGSV,3,2,10,17,44,108,46,18,21,286,41,22,17,326,40,24,45,277,47*74
$GPGLL,6017.5857,N,02040.0082,E,174904,V,S*4E
$GPBOD,114.4,T,109.1,M,BARO W,*27
$GPBWC,174904,6017.2000,N,02041.8000,E,113.5,T,108.2,M,0.970,N,BARO W,S*14
$GPVTG,0.0,T,354.7,M,0.0,N,0.0,K*4B
$GPXTE,V,V,0.02,L,N,S*13
$PGRME,15.0,M,22.5,M,27.0,M*1A
$PGRMZ,-71,f,3*00
$PGRMM,WGS 84*06
$GPRTE,1,1,c,*37
$GPRMC,174906,V,6017.5857,N,02040.0082,E,0.0,0.0,060215,5.3,E,S*16
$GPRMB,V,0.02,L,,BARO W,6017.2000,N,02041.8000,E,0.970,113.5,,V,S*1E
$GPGGA,174906,6017.5857,N,02040.0082,E,8,10,2.0,-21.6,M,21.0,M,,*5D
$GPGSA,A,3,01,11,12,15,17,18,22,24,26,28,,,3.6,2.0,3.0*37
$GPGSV,3,3,10,26,30,169,44,28,38,065,45*72
$GPGLL,6017.5857,N,02040.0082,E,174906,V,S*4C
$GPBOD,114.4,T,109.1,M,BARO W,*27
$GPBWC,174906,6017.2000,N,02041.8000,E,113.5,T,108.2,M,0.970,N,BARO W,S*16
$GPVTG,0.0,T,354.7,M,0.0,N,0.0,K*4B
$GPXTE,V,V,0.02,L,N,S*13
$PGRME,15.0,M,22.5,M,27.0,M*1A
$PGRMZ,-71,f,3*00
$PGRMM,WGS 84*06
$GPRTE,1,1,c,*37
$GPRMC,174908,V,6017.5857,N,02040.0082,E,0.0,0.0,060215,5.3,E,S*18
$GPRMB,V,0.02,L,,BARO W,6017.2000,N,02041.8000,E,0.970,113.5,,V,S*1E
$GPGGA,174908,6017.5857,N,02040.0082,E,8,10,2.0,-21.6,M,21.0,M,,*53
$GPGSA,A,3,01,11,12,15,17,18,22,24,26,28,,,3.6,2.0,3.0*37
$GPGSV,3,1,10,01,14,048,39,11,13,029,38,12,18,229,41,15,52,222,48*71
$GPGLL,6017.5857,N,02040.0082,E,174908,V,S*42
$GPBOD,114.4,T,109.1,M,BARO W,*27
$GPBWC,174908,6017.2000,N,02041.8000,E,113.5,T,108.2,M,0.970,N,BARO W,S*18
$GPVTG,0.0,T,354.7,M,0.0,N,0.0,K*4B
$GPXTE,V,V,0.02,L,N,S*13
$PGRME,15.0,M,22.5,M,27.0,M*1A
$PGRMZ,-71,f,3*00
$PGRMM,WGS 84*06
$GPRTE,1,1,c,*37
$GPRMC,174910,V,6017.5857,N,02040.0082,E,0.0,0.0,060215,5.3,E,S*11
$GPRMB,V,0.02,L,,BARO W,6017.2000,N,02041.8000,E,0.970,113.5,,V,S*1E
$GPGGA,174910,6017.5857,N,02040.0082,E,8,10,2.0,-21.6,M,21.0,M,,*5A
$GPGSA,A,3,01,11,12,15,17,18,22,24,26,28,,,3.6,2.0,3.0*37
$GPGSV,3,2,10,17,44,108,46,18,21,286,41,22,17,326,39,24,45,277,47*7A
$GPGLL,6017.5857,N,02040.0082,E,174910,V,S*4B
$GPBOD,114.4,T,109.1,M,BARO W,*27
$GPBWC,174910,6017.2000,N,02041.8000,E,113.5,T,108.2,M,0.970,N,BARO W,S*11
$GPVTG,0.0,T,354.7,M,0.0,N,0.0,K*4B
$GPXTE,V,V,0.02,L,N,S*13
$PGRME,15.0,M,22.5,M,27.0,M*1A
$PGRMZ,-71,f,3*00
$PGRMM,WGS 84*06
$GPRTE,1,1,c,*37
$GPRMC,174912,V,6017.5857,N,02040.0082,E,0.0,0.0,060215,5.3,E,S*13
$GPRMB,V,0.02,L,,BARO W,6017.2000,N,02041.8000,E,0.970,113.5,,V,S*1E
$GPGGA,174912,6017.5857,N,02040.0082,E,8,10,2.0,-21.6,M,21.0,M,,*58
$GPGSA,A,3,01,11,12,15,17,18,22,24,26,28,,,3.6,2.0,3.0*37
$GPGSV,3,3,10,26,30,169,44,28,38,065,45*72
$GPGLL,6017.5857,N,02040.0082,E,174912,V,S*49
$GPBOD,114.4,T,109.1,M,BARO W,*27
$GPBWC,174912,6017.2000,N,02041.8000,E,113.5,T,108.2,M,0.970,N,BARO W,S*13
$GPVTG,0.0,T,354.7,M,0.0,N,0.0,K*4B
$GPXTE,V,V,0.02,L,N,S*13
$PGRME,15.0,M,22.5,M,27.0,M*1A
$PGRMZ,-71,f,3*00
$PGRMM,WGS 84*06
$GPRTE,1,1,c,*37
$GPRMC,174914,V,6017.5857,N,02040.0082,E,0.0,0.0,060215,5.3,E,S*15
$GPRMB,V,0.02,L,,BARO W,6017.2000,N,02041.8000,E,0.970,113.5,,V,S*1E
$GPGGA,174914,6017.5857,N,02040.0082,E,8,10,2.0,-21.6,M,21.0,M,,*5E
$GPGSA,A,3,01,11,12,15,17,18,22,24,26,28,,,3.6,2.0,3.0*37
$GPGSV,3,1,10,01,14,048,39,11,13,029,39,12,18,229,41,15,52,222,48*70
$GPGLL,6017.5857,N,02040.0082,E,174914,V,S*4F
$GPBOD,114.4,T,109.1,M,BARO W,*27
$GPBWC,174914,6017.2000,N,02041.8000,E,113.5,T,108.2,M,0.970,N,BARO W,S*15
$GPVTG,0.0,T,354.7,M,0.0,N,0.0,K*4B
$GPXTE,V,V,0.02,L,N,S*13
$PGRME,15.0,M,22.5,M,27.0,M*1A
$PGRMZ,-71,f,3*00
$PGRMM,WGS 84*06
$GPRTE,1,1,c,*37
$GPRMC,174916,V,6017.5857,N,02040.0082,E,0.0,0.0,060215,5.3,E,S*17
$GPRMB,V,0.02,L,,BARO W,6017.2000,N,02041.8000,E,0.970,113.5,,V,S*1E
$GPGGA,174916,6017.5857,N,02040.0082,E,8,10,2.0,-21.6,M,21.0,M,,*5C
$GPGSA,A,3,01,11,12,15,17,18,22,24,26,28,,,3.6,2.0,3.0*37
$GPGSV,3,2,10,17,44,107,46,18,21,286,41,22,17,326,40,24,45,277,47*7B
$GPGLL,6017.5857,N,02040.0082,E,174916,V,S*4D
$GPBOD,114.4,T,109.1,M,BARO W,*27
$GPBWC,174916,6017.2000,N,02041.8000,E,113.5,T,108.2,M,0.970,N,BARO W,S*17
$GPVTG,0.0,T,354.7,M,0.0,N,0.0,K*4B
$GPXTE,V,V,0.02,L,N,S*13
$PGRME,15.0,M,22.5,M,27.0,M*1A
$PGRMZ,-71,f,3*00
$PGRMM,WGS 84*06
$GPRTE,1,1,c,*37
$GPRMC,174918,V,6017.5857,N,02040.0082,E,0.0,0.0,060215,5.3,E,S*19
$GPRMB,V,0.02,L,,BARO W,6017.2000,N,02041.8000,E,0.970,113.5,,V,S*1E
$GPGGA,174918,6017.5857,N,02040.0082,E,8,10,2.0,-21.6,M,21.0,M,,*52
$GPGSA,A,3,01,11,12,15,17,18,22,24,26,28,,,3.6,2.0,3.0*37
$GPGSV,3,3,10,26,30,169,44,28,38,065,46*71
$GPGLL,6017.5857,N,02040.0082,E,174918,V,S*43
$GPBOD,114.4,T,109.1,M,BARO W,*27
$GPBWC,174918,6017.2000,N,02041.8000,E,113.5,T,108.2,M,0.970,N,BARO W,S*19
$GPVTG,0.0,T,354.7,M,0.0,N,0.0,K*4B
$GPXTE,V,V,0.02,L,N,S*13
$PGRME,15.0,M,22.5,M,27.0,M*1A
$PGRMZ,-71,f,3*00
$PGRMM,WGS 84*06
$GPRTE,1,1,c,*37
$GPRMC,174920,V,6017.5857,N,02040.0082,E,0.0,0.0,060215,5.3,E,S*12
$GPRMB,V,0.02,L,,BARO W,6017.2000,N,02041.8000,E,0.970,113.5,,V,S*1E
$GPGGA,174920,6017.5857,N,02040.0082,E,8,10,2.0,-21.6,M,21.0,M,,*59
$GPGSA,A,3,01,11,12,15,17,18,22,24,26,28,,,3.6,2.0,3.0*37
$GPGSV,3,1,10,01,14,048,39,11,13,029,39,12,18,229,41,15,52,222,48*70
$GPGLL,6017.5857,N,02040.0082,E,174920,V,S*48
$GPBOD,114.4,T,109.1,M,BARO W,*27
$GPBWC,174920,6017.2000,N,02041.8000,E,113.5,T,108.2,M,0.970,N,BARO W,S*12
$GPVTG,0.0,T,354.7,M,0.0,N,0.0,K*4B
$GPXTE,V,V,0.02,L,N,S*13
$PGRME,15.0,M,22.5,M,27.0,M*1A
$PGRMZ,-71,f,3*00
$PGRMM,WGS 84*06
$GPRTE,1,1,c,*37
$GPRMC,174922,V,6017.5857,N,02040.0082,E,0.0,0.0,060215,5.3,E,S*10
$GPRMB,V,0.02,L,,BARO W,6017.2000,N,02041.8000,E,0.970,113.5,,V,S*1E
$GPGGA,174922,6017.5857,N,02040.0082,E,8,10,2.0,-21.6,M,21.0,M,,*5B
$GPGSA,A,3,01,11,12,15,17,18,22,24,26,28,,,3.6,2.0,3.0*37
$GPGSV,3,2,10,17,44,107,46,18,21,286,42,22,17,326,40,24,45,277,47*78
$GPGLL,6017.5857,N,02040.0082,E,174922,V,S*4A
$GPBOD,114.4,T,109.1,M,BARO W,*27
$GPBWC,174922,6017.2000,N,02041.8000,E,113.5,T,108.2,M,0.970,N,BARO W,S*10
$GPVTG,0.0,T,354.7,M,0.0,N,0.0,K*4B
$GPXTE,V,V,0.02,L,N,S*13
$PGRME,15.0,M,22.5,M,27.0,M*1A
$PGRMZ,-71,f,3*00
$PGRMM,WGS 84*06
$GPRTE,1,1,c,*37
$GPRMC,174924,V,6017.5857,N,02040.0082,E,0.0,0.0,060215,5.3,E,S*16
$GPRMB,V,0.02,L,,BARO W,6017.2000,N,02041.8000,E,0.970,113.5,,V,S*1E
$GPGGA,174924,6017.5857,N,02040.0082,E,8,10,2.0,-21.6,M,21.0,M,,*5D
$GPGSA,A,3,01,11,12,15,17,18,22,24,26,28,,,3.6,2.0,3.0*37
$GPGSV,3,3,10,26,30,169,44,28,38,065,45*72
$GPGLL,6017.5857,N,02040.0082,E,174924,V,S*4C
$GPBOD,114.4,T,109.1,M,BARO W,*27
$GPBWC,174924,6017.2000,N,02041.8000,E,113.5,T,108.2,M,0.970,N,BARO W,S*16
$GPVTG,0.0,T,354.7,M,0.0,N,0.0,K*4B
$GPXTE,V,V,0.02,L,N,S*13
$PGRME,15.0,M,22.5,M,27.0,M*1A
$PGRMZ,-71,f,3*00
$PGRMM,WGS 84*06
$GPRTE,1,1,c,*37
$GPRMC,174926,V,6017.5857,N,02040.0082,E,0.0,0.0,060215,5.3,E,S*14
$GPRMB,V,0.02,L,,BARO W,6017.2000,N,02041.8000,E,0.970,113.5,,V,S*1E
$GPGGA,174926,6017.5857,N,02040.0082,E,8,10,2.0,-21.6,M,21.0,M,,*5F
$GPGSA,A,3,01,11,12,15,17,18,22,24,26,28,,,3.6,2.0,3.0*37
$GPGSV,3,1,10,01,14,048,40,11,13,029,39,12,18,229,41,15,52,222,48*7E
$GPGLL,6017.5857,N,02040.0082,E,174926,V,S*4E
$GPBOD,114.4,T,109.1,M,BARO W,*27
$GPBWC,174926,6017.2000,N,02041.8000,E,113.5,T,108.2,M,0.970,N,BARO W,S*14
$GPVTG,0.0,T,354.7,M,0.0,N,0.0,K*4B
$GPXTE,V,V,0.02,L,N,S*13
$PGRME,15.0,M,22.5,M,27.0,M*1A
$PGRMZ,-71,f,3*00
$PGRMM,WGS 84*06
$GPRTE,1,1,c,*37
$GPRMC,174928,V,6017.5857,N,02040.0082,E,0.0,0.0,060215,5.3,E,S*1A
$GPRMB,V,0.02,L,,BARO W,6017.2000,N,02041.8000,E,0.970,113.5,,V,S*1E
$GPGGA,174928,6017.5857,N,02040.0082,E,8,10,2.0,-21.6,M,21.0,M,,*51
$GPGSA,A,3,01,11,12,15,17,18,22,24,26,28,,,3.6,2.0,3.0*37
$GPGSV,3,2,10,17,44,107,46,18,21,286,42,22,17,326,40,24,45,277,47*78
$GPGLL,6017.5857,N,02040.0082,E,174928,V,S*40
$GPBOD,114.4,T,109.1,M,BARO W,*27
$GPBWC,174928,6017.2000,N,02041.8000,E,113.5,T,108.2,M,0.970,N,BARO W,S*1A
$GPVTG,0.0,T,354.7,M,0.0,N,0.0,K*4B
$GPXTE,V,V,0.02,L,N,S*13
$PGRME,15.0,M,22.5,M,27.0,M*1A
$PGRMZ,-71,f,3*00
$PGRMM,WGS 84*06
$GPRTE,1,1,c,*37
$GPRMC,174930,V,6017.5857,N,02040.0082,E,0.0,0.0,060215,5.3,E,S*13
$GPRMB,V,0.02,L,,BARO W,6017.2000,N,02041.8000,E,0.970,113.5,,V,S*1E
$GPGGA,174930,6017.5857,N,02040.0082,E,8,10,2.0,-21.6,M,21.0,M,,*58
$GPGSA,A,3,01,11,12,15,17,18,22,24,26,28,,,3.6,2.0,3.0*37
$GPGSV,3,3,10,26,30,169,44,28,38,065,45*72
$GPGLL,6017.5857,N,02040.0082,E,174930,V,S*49
$GPBOD,114.4,T,109.1,M,BARO W,*27
$GPBWC,174930,6017.2000,N,02041.8000,E,113.5,T,108.2,M,0.970,N,BARO W,S*13
$GPVTG,0.0,T,354.7,M,0.0,N,0.0,K*4B
$GPXTE,V,V,0.02,L,N,S*13
$PGRME,15.0,M,22.5,M,27.0,M*1A
$PGRMZ,-71,f,3*00
$PGRMM,WGS 84*06
$GPRTE,1,1,c,*37
$GPRMC,174932,V,6017.5857,N,02040.0082,E,0.0,0.0,060215,5.3,E,S*11
$GPRMB,V,0.02,L,,BARO W,6017.2000,N,02041.8000,E,0.970,113.5,,V,S*1E
$GPGGA,174932,6017.5857,N,02040.0082,E,8,10,2.0,-21.6,M,21.0,M,,*5A
$GPGSA,A,3,01,11,12,15,17,18,22,24,26,28,,,3.6,2.0,3.0*37
$GPGSV,3,1,10,01,14,048,39,11,13,029,38,12,18,229,40,15,52,222,47*7F
$GPGLL,6017.5857,N,02040.0082,E,174932,V,S*4B
$GPBOD,114.4,T,109.1,M,BARO W,*27
$GPBWC,174932,6017.2000,N,02041.8000,E,113.5,T,108.2,M,0.970,N,BARO W,S*11
$GPVTG,0.0,T,354.7,M,0.0,N,0.0,K*4B
$GPXTE,V,V,0.02,L,N,S*13
$PGRME,15.0,M,22.5,M,27.0,M*1A
$PGRMZ,-71,f,3*00
$PGRMM,WGS 84*06
$GPRTE,1,1,c,*37
$GPRMC,174934,V,6017.5857,N,02040.0082,E,0.0,0.0,060215,5.3,E,S*17
$GPRMB,V,0.02,L,,BARO W,6017.2000,N,02041.8000,E,0.970,113.5,,V,S*1E
$GPGGA,174934,6017.5857,N,02040.0082,E,8,10,2.0,-21.6,M,21.0,M,,*5C
$GPGSA,A,3,01,11,12,15,17,18,22,24,26,28,,,3.6,2.0,3.0*37
$GPGSV,3,2,10,17,44,107,47,18,21,286,42,22,17,325,40,24,45,277,47*7A
$GPGLL,6017.5857,N,02040.0082,E,174934,V,S*4D
$GPBOD,114.4,T,109.1,M,BARO W,*27
$GPBWC,174934,6017.2000,N,02041.8000,E,113.5,T,108.2,M,0.970,N,BARO W,S*17
$GPVTG,0.0,T,354.7,M,0.0,N,0.0,K*4B
$GPXTE,V,V,0.02,L,N,S*13
$PGRME,15.0,M,22.5,M,27.0,M*1A
$PGRMZ,-71,f,3*00
$PGRMM,WGS 84*06
$GPRTE,1,1,c,*37
$GPRMC,174936,V,6017.5857,N,02040.0082,E,0.0,0.0,060215,5.3,E,S*15
$GPRMB,V,0.02,L,,BARO W,6017.2000,N,02041.8000,E,0.970,113.5,,V,S*1E
$GPGGA,174936,6017.5857,N,02040.0082,E,8,10,2.0,-21.6,M,21.0,M,,*5E
$GPGSA,A,3,01,11,12,15,17,18,22,24,26,28,,,3.6,2.0,3.0*37
$GPGSV,3,3,10,26,30,169,44,28,38,065,45*72
$GPGLL,6017.5857,N,02040.0082,E,174936,V,S*4F
$GPBOD,114.4,T,109.1,M,BARO W,*27
$GPBWC,174936,6017.2000,N,02041.8000,E,113.5,T,108.2,M,0.970,N,BARO W,S*15
$GPVTG,0.0,T,354.7,M,0.0,N,0.0,K*4B
$GPXTE,V,V,0.02,L,N,S*13
$PGRME,15.0,M,22.5,M,27.0,M*1A
$PGRMZ,-71,f,3*00
$PGRMM,WGS 84*06
$GPRTE,1,1,c,*37
$GPRMC,174938,V,6017.5857,N,02040.0082,E,0.0,0.0,060215,5.3,E,S*1B
$GPRMB,V,0.02,L,,BARO W,6017.2000,N,02041.8000,E,0.970,113.5,,V,S*1E
$GPGGA,174938,6017.5857,N,02040.0082,E,8,10,2.0,-21.6,M,21.0,M,,*50
$GPGSA,A,3,01,11,12,15,17,18,22,24,26,28,,,3.6,2.0,3.0*37
$GPGSV,3,1,10,01,14,048,39,11,13,029,38,12,18,229,40,15,52,222,47*7F
$GPGLL,6017.5857,N,02040.0082,E,174938,V,S*41
$GPBOD,114.4,T,109.1,M,BARO W,*27
$GPBWC,174938,6017.2000,N,02041.8000,E,113.5,T,108.2,M,0.970,N,BARO W,S*1B
$GPVTG,0.0,T,354.7,M,0.0,N,0.0,K*4B
$GPXTE,V,V,0.02,L,N,S*13
$PGRME,15.0,M,22.5,M,27.0,M*1A
$PGRMZ,-71,f,3*00
$PGRMM,WGS 84*06
$GPRTE,1,1,c,*37
$GPRMC,174940,V,6017.5857,N,02040.0082,E,0.0,0.0,060215,5.3,E,S*14
$GPRMB,V,0.02,L,,BARO W,6017.2000,N,02041.8000,E,0.970,113.5,,V,S*1E
$GPGGA,174940,6017.5857,N,02040.0082,E,8,10,2.0,-21.6,M,21.0,M,,*5F
$GPGSA,A,3,01,11,12,15,17,18,22,24,26,28,,,3.6,2.0,3.0*37
$GPGSV,3,2,10,17,44,107,47,18,21,286,42,22,17,325,40,24,45,277,47*7A
$GPGLL,6017.5857,N,02040.0082,E,174940,V,S*4E
$GPBOD,114.4,T,109.1,M,BARO W,*27
$GPBWC,174940,6017.2000,N,02041.8000,E,113.5,T,108.2,M,0.970,N,BARO W,S*14
$GPVTG,0.0,T,354.7,M,0.0,N,0.0,K*4B
$GPXTE,V,V,0.02,L,N,S*13
$PGRME,15.0,M,22.5,M,27.0,M*1A
$PGRMZ,-71,f,3*00
$PGRMM,WGS 84*06
$GPRTE,1,1,c,*37
$GPRMC,174942,V,6017.5857,N,02040.0082,E,0.0,0.0,060215,5.3,E,S*16
$GPRMB,V,0.02,L,,BARO W,6017.2000,N,02041.8000,E,0.970,113.5,,V,S*1E
$GPGGA,174942,6017.5857,N,02040.0082,E,8,10,2.0,-21.6,M,21.0,M,,*5D
$GPGSA,A,3,01,11,12,15,17,18,22,24,26,28,,,3.6,2.0,3.0*37
$GPGSV,3,3,10,26,30,169,44,28,38,065,45*72
$GPGLL,6017.5857,N,02040.0082,E,174942,V,S*4C
$GPBOD,114.4,T,109.1,M,BARO W,*27
$GPBWC,174942,6017.2000,N,02041.8000,E,113.5,T,108.2,M,0.970,N,BARO W,S*16
$GPVTG,0.0,T,354.7,M,0.0,N,0.0,K*4B
$GPXTE,V,V,0.02,L,N,S*13
$PGRME,15.0,M,22.5,M,27.0,M*1A
$PGRMZ,-71,f,3*00
$PGRMM,WGS 84*06
$GPRTE,1,1,c,*37
$GPRMC,174944,V,6017.5857,N,02040.0082,E,0.0,0.0,060215,5.3,E,S*10
$GPRMB,V,0.02,L,,BARO W,6017.2000,N,02041.8000,E,0.970,113.5,,V,S*1E
$GPGGA,174944,6017.5857,N,02040.0082,E,8,10,2.0,-21.6,M,21.0,M,,*5B
$GPGSA,A,3,01,11,12,15,17,18,22,24,26,28,,,3.6,2.0,3.0*37
$GPGSV,3,1,10,01,14,048,39,11,13,029,38,12,18,229,41,15,52,222,48*71
$GPGLL,6017.5857,N,02040.0082,E,174944,V,S*4A
$GPBOD,114.4,T,109.1,M,BARO W,*27
$GPBWC,174944,6017.2000,N,02041.8000,E,113.5,T,108.2,M,0.970,N,BARO W,S*10
$GPVTG,0.0,T,354.7,M,0.0,N,0.0,K*4B
$GPXTE,V,V,0.02,L,N,S*13
$PGRME,15.0,M,22.5,M,27.0,M*1A
$PGRMZ,-71,f,3*00
$PGRMM,WGS 84*06
$GPRTE,1,1,c,*37
$GPRMC,174946,V,6017.5857,N,02040.0082,E,0.0,0.0,060215,5.3,E,S*12
$GPRMB,V,0.02,L,,BARO W,6017.2000,N,02041.8000,E,0.970,113.5,,V,S*1E
$GPGGA,174946,6017.5857,N,02040.0082,E,8,10,2.0,-21.6,M,21.0,M,,*59
$GPGSA,A,3,01,11,12,15,17,18,22,24,26,28,,,3.6,2.0,3.0*37
$GPGSV,3,2,10,17,44,107,47,18,21,286,41,22,17,325,40,24,45,277,47*79
$GPGLL,6017.5857,N,02040.0082,E,174946,V,S*48
$GPBOD,114.4,T,109.1,M,BARO W,*27
$GPBWC,174946,6017.2000,N,02041.8000,E,113.5,T,108.2,M,0.970,N,BARO W,S*12
$GPVTG,0.0,T,354.7,M,0.0,N,0.0,K*4B
$GPXTE,V,V,0.02,L,N,S*13
$PGRME,15.0,M,22.5,M,27.0,M*1A
$PGRMZ,-71,f,3*00
$PGRMM,WGS 84*06
$GPRTE,1,1,c,*37
$GPRMC,174948,V,6017.5857,N,02040.0082,E,0.0,0.0,060215,5.3,E,S*1C
$GPRMB,V,0.02,L,,BARO W,6017.2000,N,02041.8000,E,0.970,113.5,,V,S*1E
$GPGGA,174948,6017.5857,N,02040.0082,E,8,10,2.0,-21.6,M,21.0,M,,*57
$GPGSA,A,3,01,11,12,15,17,18,22,24,26,28,,,3.6,2.0,3.0*37
$GPGSV,3,3,10,26,29,169,43,28,38,065,45*7D
$GPGLL,6017.5857,N,02040.0082,E,174948,V,S*46
$GPBOD,114.4,T,109.1,M,BARO W,*27
$GPBWC,174948,6017.2000,N,02041.8000,E,113.5,T,108.2,M,0.970,N,BARO W,S*1C
$GPVTG,0.0,T,354.7,M,0.0,N,0.0,K*4B
$GPXTE,V,V,0.02,L,N,S*13
$PGRME,15.0,M,22.5,M,27.0,M*1A
$PGRMZ,-71,f,3*00
$PGRMM,WGS 84*06
$GPRTE,1,1,c,*37
$GPRMC,174950,V,6017.5857,N,02040.0082,E,0.0,0.0,060215,5.3,E,S*15
$GPRMB,V,0.02,L,,BARO W,6017.2000,N,02041.8000,E,0.970,113.5,,V,S*1E
$GPGGA,174950,6017.5857,N,02040.0082,E,8,10,2.0,-21.6,M,21.0,M,,*5E
$GPGSA,A,3,01,11,12,15,17,18,22,24,26,28,,,3.6,2.0,3.0*37
$GPGSV,3,1,10,01,14,048,39,11,13,029,39,12,18,229,40,15,52,222,48*71
$GPGLL,6017.5857,N,02040.0082,E,174950,V,S*4F
$GPBOD,114.4,T,109.1,M,BARO W,*27
$GPBWC,174950,6017.2000,N,02041.8000,E,113.5,T,108.2,M,0.970,N,BARO W,S*15
$GPVTG,0.0,T,354.7,M,0.0,N,0.0,K*4B
$GPXTE,V,V,0.02,L,N,S*13
$PGRME,15.0,M,22.5,M,27.0,M*1A
$PGRMZ,-71,f,3*00
$PGRMM,WGS 84*06
$GPRTE,1,1,c,*37
$GPRMC,174952,V,6017.5857,N,02040.0082,E,0.0,0.0,060215,5.3,E,S*17
$GPRMB,V,0.02,L,,BARO W,6017.2000,N,02041.8000,E,0.970,113.5,,V,S*1E
$GPGGA,174952,6017.5857,N,02040.0082,E,8,10,2.0,-21.6,M,21.0,M,,*5C
$GPGSA,A,3,01,11,12,15,17,18,22,24,26,28,,,3.6,2.0,3.0*37
$GPGSV,3,2,10,17,44,107,47,18,21,286,41,22,17,325,40,24,45,277,47*79
$GPGLL,6017.5857,N,02040.0082,E,174952,V,S*4D
$GPBOD,114.4,T,109.1,M,BARO W,*27
$GPBWC,174952,6017.2000,N,02041.8000,E,113.5,T,108.2,M,0.970,N,BARO W,S*17
$GPVTG,0.0,T,354.7,M,0.0,N,0.0,K*4B
$GPXTE,V,V,0.02,L,N,S*13
$PGRME,15.0,M,22.5,M,27.0,M*1A
$PGRMZ,-71,f,3*00
$PGRMM,WGS 84*06
$GPRTE,1,1,c,*37
$GPRMC,174954,V,6017.5857,N,02040.0082,E,0.0,0.0,060215,5.3,E,S*11
$GPRMB,V,0.02,L,,BARO W,6017.2000,N,02041.8000,E,0.970,113.5,,V,S*1E
$GPGGA,174954,6017.5857,N,02040.0082,E,8,10,2.0,-21.6,M,21.0,M,,*5A
$GPGSA,A,3,01,11,12,15,17,18,22,24,26,28,,,3.6,2.0,3.0*37
$GPGSV,3,3,10,26,29,169,44,28,37,065,45*75
$GPGLL,6017.5857,N,02040.0082,E,174954,V,S*4B
$GPBOD,114.4,T,109.1,M,BARO W,*27
$GPBWC,174954,6017.2000,N,02041.8000,E,113.5,T,108.2,M,0.970,N,BARO W,S*11
$GPVTG,0.0,T,354.7,M,0.0,N,0.0,K*4B
$GPXTE,V,V,0.02,L,N,S*13
$PGRME,15.0,M,22.5,M,27.0,M*1A
$PGRMZ,-71,f,3*00
$PGRMM,WGS 84*06
$GPRTE,1,1,c,*37
$GPRMC,174956,V,6017.5857,N,02040.0082,E,0.0,0.0,060215,5.3,E,S*13
$GPRMB,V,0.02,L,,BARO W,6017.2000,N,02041.8000,E,0.970,113.5,,V,S*1E
$GPGGA,174956,6017.5857,N,02040.0082,E,8,10,2.0,-21.6,M,21.0,M,,*58
$GPGSA,A,3,01,11,12,15,17,18,22,24,26,28,,,3.6,2.0,3.0*37
$GPGSV,3,1,10,01,14,048,38,11,13,029,39,12,18,229,41,15,52,222,48*71
$GPGLL,6017.5857,N,02040.0082,E,174956,V,S*49
$GPBOD,114.4,T,109.1,M,BARO W,*27
$GPBWC,174956,6017.2000,N,02041.8000,E,113.5,T,108.2,M,0.970,N,BARO W,S*13
$GPVTG,0.0,T,354.7,M,0.0,N,0.0,K*4B
$GPXTE,V,V,0.02,L,N,S*13
$PGRME,15.0,M,22.5,M,27.0,M*1A
$PGRMZ,-71,f,3*00
$PGRMM,WGS 84*06
$GPRTE,1,1,c,*37
$GPRMC,174958,V,6017.5857,N,02040.0082,E,0.0,0.0,060215,5.3,E,S*1D
$GPRMB,V,0.02,L,,BARO W,6017.2000,N,02041.8000,E,0.970,113.5,,V,S*1E
$GPGGA,174958,6017.5857,N,02040.0082,E,8,10,2.0,-21.6,M,21.0,M,,*56
$GPGSA,A,3,01,11,12,15,17,18,22,24,26,28,,,3.6,2.0,3.0*37
$GPGSV,3,2,10,17,44,107,46,18,21,286,42,22,17,325,40,24,45,277,47*7B
$GPGLL,6017.5857,N,02040.0082,E,174958,V,S*47
$GPBOD,114.4,T,109.1,M,BARO W,*27
$GPBWC,174958,6017.2000,N,02041.8000,E,113.5,T,108.2,M,0.970,N,BARO W,S*1D
$GPVTG,0.0,T,354.7,M,0.0,N,0.0,K*4B
$GPXTE,V,V,0.02,L,N,S*13
$PGRME,15.0,M,22.5,M,27.0,M*1A
$PGRMZ,-71,f,3*00
$PGRMM,WGS 84*06
$GPRTE,1,1,c,*37
$GPRMC,175000,V,6017.5857,N,02040.0082,E,0.0,0.0,060215,5.3,E,S*18
$GPRMB,V,0.02,L,,BARO W,6017.2000,N,02041.8000,E,0.970,113.5,,V,S*1E
$GPGGA,175000,6017.5857,N,02040.0082,E,8,10,2.0,-21.6,M,21.0,M,,*53
$GPGSA,A,3,01,11,12,15,17,18,22,24,26,28,,,3.6,2.0,3.0*37
$GPGSV,3,3,10,26,29,169,44,28,37,065,45*75
$GPGLL,6017.5857,N,02040.0082,E,175000,V,S*42
$GPBOD,114.4,T,109.1,M,BARO W,*27
$GPBWC,175000,6017.2000,N,02041.8000,E,113.5,T,108.2,M,0.970,N,BARO W,S*18
$GPVTG,0.0,T,354.7,M,0.0,N,0.0,K*4B
$GPXTE,V,V,0.02,L,N,S*13
$PGRME,15.0,M,22.5,M,27.0,M*1A
$PGRMZ,-71,f,3*00
$PGRMM,WGS 84*06
$GPRTE,1,1,c,*37
$GPRMC,175002,V,6017.5857,N,02040.0082,E,0.0,0.0,060215,5.3,E,S*1A
$GPRMB,V,0.02,L,,BARO W,6017.2000,N,02041.8000,E,0.970,113.5,,V,S*1E
$GPGGA,175002,6017.5857,N,02040.0082,E,8,10,2.0,-21.6,M,21.0,M,,*51
$GPGSA,A,3,01,11,12,15,17,18,22,24,26,28,,,3.6,2.0,3.0*37
$GPGSV,3,1,10,01,14,048,39,11,13,029,38,12,18,229,41,15,52,222,48*71
$GPGLL,6017.5857,N,02040.0082,E,175002,V,S*40
$GPBOD,114.4,T,109.1,M,BARO W,*27
$GPBWC,175002,6017.2000,N,02041.8000,E,113.5,T,108.2,M,0.970,N,BARO W,S*1A
$GPVTG,0.0,T,354.7,M,0.0,N,0.0,K*4B
$GPXTE,V,V,0.02,L,N,S*13
$PGRME,15.0,M,22.5,M,27.0,M*1A
$PGRMZ,-71,f,3*00
$PGRMM,WGS 84*06
$GPRTE,1,1,c,*37
$GPRMC,175004,V,6017.5857,N,02040.0082,E,0.0,0.0,060215,5.3,E,S*1C
$GPRMB,V,0.02,L,,BARO W,6017.2000,N,02041.8000,E,0.970,113.5,,V,S*1E
$GPGGA,175004,6017.5857,N,02040.0082,E,8,10,2.0,-21.6,M,21.0,M,,*57
$GPGSA,A,3,01,11,12,15,17,18,22,24,26,28,,,3.6,2.0,3.0*37
$GPGSV,3,2,10,17,44,107,46,18,21,286,41,22,17,325,41,24,45,277,46*78
$GPGLL,6017.5857,N,02040.0082,E,175004,V,S*46
$GPBOD,114.4,T,109.1,M,BARO W,*27
$GPBWC,175004,6017.2000,N,02041.8000,E,113.5,T,108.2,M,0.970,N,BARO W,S*1C
$GPVTG,0.0,T,354.7,M,0.0,N,0.0,K*4B
$GPXTE,V,V,0.02,L,N,S*13
$PGRME,15.0,M,22.5,M,27.0,M*1A
$PGRMZ,-71,f,3*00
$PGRMM,WGS 84*06
$GPRTE,1,1,c,*37
$GPRMC,175006,V,6017.5857,N,02040.0082,E,0.0,0.0,060215,5.3,E,S*1E
$GPRMB,V,0.02,L,,BARO W,6017.2000,N,02041.8000,E,0.970,113.5,,V,S*1E
$GPGGA,175006,6017.5857,N,02040.0082,E,8,10,2.0,-21.6,M,21.0,M,,*55
$GPGSA,A,3,01,11,12,15,17,18,22,24,26,28,,,3.6,2.0,3.0*37
$GPGSV,3,3,10,26,29,169,44,28,37,065,45*75
$GPGLL,6017.5857,N,02040.0082,E,175006,V,S*44
$GPBOD,114.4,T,109.1,M,BARO W,*27
$GPBWC,175006,6017.2000,N,02041.8000,E,113.5,T,108.2,M,0.970,N,BARO W,S*1E
$GPVTG,0.0,T,354.7,M,0.0,N,0.0,K*4B
$GPXTE,V,V,0.02,L,N,S*13
$PGRME,15.0,M,22.5,M,27.0,M*1A
$PGRMZ,-71,f,3*00
$PGRMM,WGS 84*06
$GPRTE,1,1,c,*37
$GPRMC,175008,V,6017.5857,N,02040.0082,E,0.0,0.0,060215,5.3,E,S*10
$GPRMB,V,0.02,L,,BARO W,6017.2000,N,02041.8000,E,0.970,113.5,,V,S*1E
$GPGGA,175008,6017.5857,N,02040.0082,E,8,10,2.0,-21.6,M,21.0,M,,*5B
$GPGSA,A,3,01,11,12,15,17,18,22,24,26,28,,,3.6,2.0,3.0*37
$GPGSV,3,1,10,01,14,048,39,11,13,029,38,12,18,229,41,15,52,222,48*71
$GPGLL,6017.5857,N,02040.0082,E,175008,V,S*4A
$GPBOD,114.4,T,109.1,M,BARO W,*27
$GPBWC,175008,6017.2000,N,02041.8000,E,113.5,T,108.2,M,0.970,N,BARO W,S*10
$GPVTG,0.0,T,354.7,M,0.0,N,0.0,K*4B
$GPXTE,V,V,0.02,L,N,S*13
$PGRME,15.0,M,22.5,M,27.0,M*1A
$PGRMZ,-71,f,3*00
$PGRMM,WGS 84*06
$GPRTE,1,1,c,*37
$GPRMC,175010,V,6017.5857,N,02040.0082,E,0.0,0.0,060215,5.3,E,S*19
$GPRMB,V,0.02,L,,BARO W,6017.2000,N,02041.8000,E,0.970,113.5,,V,S*1E
$GPGGA,175010,6017.5857,N,02040.0082,E,8,10,2.0,-21.6,M,21.0,M,,*52
$GPGSA,A,3,01,11,12,15,17,18,22,24,26,28,,,3.6,2.0,3.0*37
$GPGSV,3,2,10,17,44,107,46,18,21,286,41,22,17,325,40,24,45,277,47*78
$GPGLL,6017.5857,N,02040.0082,E,175010,V,S*43
$GPBOD,114.4,T,109.1,M,BARO W,*27
$GPBWC,175010,6017.2000,N,02041.8000,E,113.5,T,108.2,M,0.970,N,BARO W,S*19
$GPVTG,0.0,T,354.7,M,0.0,N,0.0,K*4B
$GPXTE,V,V,0.02,L,N,S*13
$PGRME,15.0,M,22.5,M,27.0,M*1A
$PGRMZ,-71,f,3*00
$PGRMM,WGS 84*06
$GPRTE,1,1,c,*37
$GPRMC,175012,V,6017.5857,N,02040.0082,E,0.0,0.0,060215,5.3,E,S*1B
$GPRMB,V,0.02,L,,BARO W,6017.2000,N,02041.8000,E,0.970,113.5,,V,S*1E
$GPGGA,175012,6017.5857,N,02040.0082,E,8,10,2.0,-21.6,M,21.0,M,,*50
$GPGSA,A,3,01,11,12,15,17,18,22,24,26,28,,,3.6,2.0,3.0*37
$GPGSV,3,3,10,26,29,169,44,28,37,065,45*75
$GPGLL,6017.5857,N,02040.0082,E,175012,V,S*41
$GPBOD,114.4,T,109.1,M,BARO W,*27
$GPBWC,175012,6017.2000,N,02041.8000,E,113.5,T,108.2,M,0.970,N,BARO W,S*1B
$GPVTG,0.0,T,354.7,M,0.0,N,0.0,K*4B
$GPXTE,V,V,0.02,L,N,S*13
$PGRME,15.0,M,22.5,M,27.0,M*1A
$PGRMZ,-71,f,3*00
$PGRMM,WGS 84*06
$GPRTE,1,1,c,*37
$GPRMC,175014,V,6017.5857,N,02040.0082,E,0.0,0.0,060215,5.3,E,S*1D
$GPRMB,V,0.02,L,,BARO W,6017.2000,N,02041.8000,E,0.970,113.5,,V,S*1E
$GPGGA,175014,6017.5857,N,02040.0082,E,8,10,2.0,-21.6,M,21.0,M,,*56
$GPGSA,A,3,01,11,12,15,17,18,22,24,26,28,,,3.6,2.0,3.0*37
$GPGSV,3,1,10,01,14,047,39,11,13,029,38,12,18,229,41,15,52,222,48*7E
$GPGLL,6017.5857,N,02040.0082,E,175014,V,S*47
$GPBOD,114.4,T,109.1,M,BARO W,*27
$GPBWC,175014,6017.2000,N,02041.8000,E,113.5,T,108.2,M,0.970,N,BARO W,S*1D
$GPVTG,0.0,T,354.7,M,0.0,N,0.0,K*4B
$GPXTE,V,V,0.02,L,N,S*13
$PGRME,15.0,M,22.5,M,27.0,M*1A
$PGRMZ,-71,f,3*00
$PGRMM,WGS 84*06
$GPRTE,1,1,c,*37
$GPRMC,175016,V,6017.5857,N,02040.0082,E,0.0,0.0,060215,5.3,E,S*1F
$GPRMB,V,0.02,L,,BARO W,6017.2000,N,02041.8000,E,0.970,113.5,,V,S*1E
$GPGGA,175016,6017.5857,N,02040.0082,E,8,10,2.0,-21.6,M,21.0,M,,*54
$GPGSA,A,3,01,11,12,15,17,18,22,24,26,28,,,3.6,2.0,3.0*37
$GPGSV,3,2,10,17,44,107,47,18,21,286,42,22,17,325,40,24,45,277,47*7A
$GPGLL,6017.5857,N,02040.0082,E,175016,V,S*45
$GPBOD,114.4,T,109.1,M,BARO W,*27
$GPBWC,175016,6017.2000,N,02041.8000,E,113.5,T,108.2,M,0.970,N,BARO W,S*1F
$GPVTG,0.0,T,354.7,M,0.0,N,0.0,K*4B
$GPXTE,V,V,0.02,L,N,S*13
$PGRME,15.0,M,22.5,M,27.0,M*1A
$PGRMZ,-71,f,3*00
$PGRMM,WGS 84*06
$GPRTE,1,1,c,*37
$GPRMC,175018,V,6017.5857,N,02040.0082,E,0.0,0.0,060215,5.3,E,S*11
$GPRMB,V,0.02,L,,BARO W,6017.2000,N,02041.8000,E,0.970,113.5,,V,S*1E
$GPGGA,175018,6017.5857,N,02040.0082,E,8,10,2.0,-21.6,M,21.0,M,,*5A
$GPGSA,A,3,01,11,12,15,17,18,22,24,26,28,,,3.6,2.0,3.0*37
$GPGSV,3,3,10,26,29,169,43,28,37,065,45*72
$GPGLL,6017.5857,N,02040.0082,E,175018,V,S*4B
$GPBOD,114.4,T,109.1,M,BARO W,*27
$GPBWC,175018,6017.2000,N,02041.8000,E,113.5,T,108.2,M,0.970,N,BARO W,S*11
$GPVTG,0.0,T,354.7,M,0.0,N,0.0,K*4B
$GPXTE,V,V,0.02,L,N,S*13
$PGRME,15.0,M,22.5,M,27.0,M*1A
$PGRMZ,-71,f,3*00
$PGRMM,WGS 84*06
$GPRTE,1,1,c,*37
$GPRMC,175020,V,6017.5857,N,02040.0082,E,0.0,0.0,060215,5.3,E,S*1A
$GPRMB,V,0.02,L,,BARO W,6017.2000,N,02041.8000,E,0.970,113.5,,V,S*1E
$GPGGA,175020,6017.5857,N,02040.0082,E,8,10,2.0,-21.6,M,21.0,M,,*51
$GPGSA,A,3,01,11,12,15,17,18,22,24,26,28,,,3.6,2.0,3.0*37
$GPGSV,3,1,10,01,14,047,39,11,13,029,39,12,18,229,41,15,52,222,48*7F
$GPGLL,6017.5857,N,02040.0082,E,175020,V,S*40
$GPBOD,114.4,T,109.1,M,BARO W,*27
$GPBWC,175020,6017.2000,N,02041.8000,E,113.5,T,108.2,M,0.970,N,BARO W,S*1A
$GPVTG,0.0,T,354.7,M,0.0,N,0.0,K*4B
$GPXTE,V,V,0.02,L,N,S*13
$PGRME,15.0,M,22.5,M,27.0,M*1A
$PGRMZ,-71,f,3*00
$PGRMM,WGS 84*06
$GPRTE,1,1,c,*37
$GPRMC,175022,V,6017.5857,N,02040.0082,E,0.0,0.0,060215,5.3,E,S*18
$GPRMB,V,0.02,L,,BARO W,6017.2000,N,02041.8000,E,0.970,113.5,,V,S*1E
$GPGGA,175022,6017.5857,N,02040.0082,E,8,10,2.0,-21.6,M,21.0,M,,*53
$GPGSA,A,3,01,11,12,15,17,18,22,24,26,28,,,3.6,2.0,3.0*37
$GPGSV,3,2,10,17,44,107,47,18,21,286,42,22,17,325,40,24,45,277,46*7B
$GPGLL,6017.5857,N,02040.0082,E,175022,V,S*42
$GPBOD,114.4,T,109.1,M,BARO W,*27
$GPBWC,175022,6017.2000,N,02041.8000,E,113.5,T,108.2,M,0.970,N,BARO W,S*18
$GPVTG,0.0,T,354.7,M,0.0,N,0.0,K*4B
$GPXTE,V,V,0.02,L,N,S*13
$PGRME,15.0,M,22.5,M,27.0,M*1A
$PGRMZ,-71,f,3*00
$PGRMM,WGS 84*06
$GPRTE,1,1,c,*37
$GPRMC,175024,V,6017.5857,N,02040.0082,E,0.0,0.0,060215,5.3,E,S*1E
$GPRMB,V,0.02,L,,BARO W,6017.2000,N,02041.8000,E,0.970,113.5,,V,S*1E
$GPGGA,175024,6017.5857,N,02040.0082,E,8,10,2.0,-21.6,M,21.0,M,,*55
$GPGSA,A,3,01,11,12,15,17,18,22,24,26,28,,,3.6,2.0,3.0*37
$GPGSV,3,3,10,26,29,169,44,28,37,065,46*76
$GPGLL,6017.5857,N,02040.0082,E,175024,V,S*44
$GPBOD,114.4,T,109.1,M,BARO W,*27
$GPBWC,175024,6017.2000,N,02041.8000,E,113.5,T,108.2,M,0.970,N,BARO W,S*1E
$GPVTG,0.0,T,354.7,M,0.0,N,0.0,K*4B
$GPXTE,V,V,0.02,L,N,S*13
$PGRME,15.0,M,22.5,M,27.0,M*1A
$PGRMZ,-71,f,3*00
$PGRMM,WGS 84*06
$GPRTE,1,1,c,*37
$GPRMC,175026,V,6017.5857,N,02040.0082,E,0.0,0.0,060215,5.3,E,S*1C
$GPRMB,V,0.02,L,,BARO W,6017.2000,N,02041.8000,E,0.970,113.5,,V,S*1E
$GPGGA,175026,6017.5857,N,02040.0082,E,8,10,2.0,-21.6,M,21.0,M,,*57
$GPGSA,A,3,01,11,12,15,17,18,22,24,26,28,,,3.6,2.0,3.0*37
$GPGSV,3,1,10,01,14,047,39,11,13,029,38,12,18,229,41,15,52,222,48*7E
$GPGLL,6017.5857,N,02040.0082,E,175026,V,S*46
$GPBOD,114.4,T,109.1,M,BARO W,*27
$GPBWC,175026,6017.2000,N,02041.8000,E,113.5,T,108.2,M,0.970,N,BARO W,S*1C
$GPVTG,0.0,T,354.7,M,0.0,N,0.0,K*4B
$GPXTE,V,V,0.02,L,N,S*13
$PGRME,15.0,M,22.5,M,27.0,M*1A
$PGRMZ,-71,f,3*00
$PGRMM,WGS 84*06
$GPRTE,1,1,c,*37
$GPRMC,175028,V,6017.5857,N,02040.0082,E,0.0,0.0,060215,5.3,E,S*12
$GPRMB,V,0.02,L,,BARO W,6017.2000,N,02041.8000,E,0.970,113.5,,V,S*1E
$GPGGA,175028,6017.5857,N,02040.0082,E,8,10,2.0,-21.6,M,21.0,M,,*59
$GPGSA,A,3,01,11,12,15,17,18,22,24,26,28,,,3.6,2.0,3.0*37
$GPGSV,3,2,10,17,44,107,47,18,21,286,42,22,17,325,40,24,45,277,47*7A
$GPGLL,6017.5857,N,02040.0082,E,175028,V,S*48
$GPBOD,114.4,T,109.1,M,BARO W,*27
$GPBWC,175028,6017.2000,N,02041.8000,E,113.5,T,108.2,M,0.970,N,BARO W,S*12
$GPVTG,0.0,T,354.7,M,0.0,N,0.0,K*4B
$GPXTE,V,V,0.02,L,N,S*13
$PGRME,15.0,M,22.5,M,27.0,M*1A
$PGRMZ,-71,f,3*00
$PGRMM,WGS 84*06
$GPRTE,1,1,c,*37
$GPRMC,175030,V,6017.5857,N,02040.0082,E,0.0,0.0,060215,5.3,E,S*1B
$GPRMB,V,0.02,L,,BARO W,6017.2000,N,02041.8000,E,0.970,113.5,,V,S*1E
$GPGGA,175030,6017.5857,N,02040.0082,E,8,10,2.0,-21.6,M,21.0,M,,*50
$GPGSA,A,3,01,11,12,15,17,18,22,24,26,28,,,3.6,2.0,3.0*37
$GPGSV,3,3,10,26,29,169,44,28,37,065,46*76
$GPGLL,6017.5857,N,02040.0082,E,175030,V,S*41
$GPBOD,114.4,T,109.1,M,BARO W,*27
$GPBWC,175030,6017.2000,N,02041.8000,E,113.5,T,108.2,M,0.970,N,BARO W,S*1B
$GPVTG,0.0,T,354.7,M,0.0,N,0.0,K*4B
$GPXTE,V,V,0.02,L,N,S*13
$PGRME,15.0,M,22.5,M,27.0,M*1A
$PGRMZ,-71,f,3*00
$PGRMM,WGS 84*06
$GPRTE,1,1,c,*37
$GPRMC,175032,V,6017.5857,N,02040.0082,E,0.0,0.0,060215,5.3,E,S*19
$GPRMB,V,0.02,L,,BARO W,6017.2000,N,02041.8000,E,0.970,113.5,,V,S*1E
$GPGGA,175032,6017.5857,N,02040.0082,E,8,10,2.0,-21.6,M,21.0,M,,*52
$GPGSA,A,3,01,11,12,15,17,18,22,24,26,28,,,3.6,2.0,3.0*37
$GPGSV,3,1,10,01,14,047,39,11,13,029,38,12,18,229,41,15,52,222,48*7E
$GPGLL,6017.5857,N,02040.0082,E,175032,V,S*43
$GPBOD,114.4,T,109.1,M,BARO W,*27
$GPBWC,175032,6017.2000,N,02041.8000,E,113.5,T,108.2,M,0.970,N,BARO W,S*19
$GPVTG,0.0,T,354.7,M,0.0,N,0.0,K*4B
$GPXTE,V,V,0.02,L,N,S*13
$PGRME,15.0,M,22.5,M,27.0,M*1A
$PGRMZ,-71,f,3*00
$PGRMM,WGS 84*06
$GPRTE,1,1,c,*37
$GPRMC,175034,V,6017.5857,N,02040.0082,E,0.0,0.0,060215,5.3,E,S*1F
$GPRMB,V,0.02,L,,BARO W,6017.2000,N,02041.8000,E,0.970,113.5,,V,S*1E
$GPGGA,175034,6017.5857,N,02040.0082,E,8,10,2.0,-21.6,M,21.0,M,,*54
$GPGSA,A,3,01,11,12,15,17,18,22,24,26,28,,,3.6,2.0,3.0*37
$GPGSV,3,2,10,17,44,107,46,18,21,286,41,22,17,325,40,24,45,277,47*78
$GPGLL,6017.5857,N,02040.0082,E,175034,V,S*45
$GPBOD,114.4,T,109.1,M,BARO W,*27
$GPBWC,175034,6017.2000,N,02041.8000,E,113.5,T,108.2,M,0.970,N,BARO W,S*1F
$GPVTG,0.0,T,354.7,M,0.0,N,0.0,K*4B
$GPXTE,V,V,0.02,L,N,S*13
$PGRME,15.0,M,22.5,M,27.0,M*1A
$PGRMZ,-71,f,3*00
$PGRMM,WGS 84*06
$GPRTE,1,1,c,*37
$GPRMC,175036,V,6017.5857,N,02040.0082,E,0.0,0.0,060215,5.3,E,S*1D
$GPRMB,V,0.02,L,,BARO W,6017.2000,N,02041.8000,E,0.970,113.5,,V,S*1E
$GPGGA,175036,6017.5857,N,02040.0082,E,8,10,2.0,-21.6,M,21.0,M,,*56
$GPGSA,A,3,01,11,12,15,17,18,22,24,26,28,,,3.6,2.0,3.0*37
$GPGSV,3,3,10,26,29,169,44,28,37,065,45*75
$GPGLL,6017.5857,N,02040.0082,E,175036,V,S*47
$GPBOD,114.4,T,109.1,M,BARO W,*27
$GPBWC,175036,6017.2000,N,02041.8000,E,113.5,T,108.2,M,0.970,N,BARO W,S*1D
$GPVTG,0.0,T,354.7,M,0.0,N,0.0,K*4B
$GPXTE,V,V,0.02,L,N,S*13
$PGRME,15.0,M,22.5,M,27.0,M*1A
$PGRMZ,-71,f,3*00
$PGRMM,WGS 84*06
$GPRTE,1,1,c,*37
$GPRMC,175038,V,6017.5857,N,02040.0082,E,0.0,0.0,060215,5.3,E,S*13
$GPRMB,V,0.02,L,,BARO W,6017.2000,N,02041.8000,E,0.970,113.5,,V,S*1E
$GPGGA,175038,6017.5857,N,02040.0082,E,8,10,2.0,-21.6,M,21.0,M,,*58
$GPGSA,A,3,01,11,12,15,17,18,22,24,26,28,,,3.6,2.0,3.0*37
$GPGSV,3,1,10,01,14,047,39,11,13,029,39,12,18,229,40,15,52,222,48*7E
$GPGLL,6017.5857,N,02040.0082,E,175038,V,S*49
$GPBOD,114.4,T,109.1,M,BARO W,*27
$GPBWC,175038,6017.2000,N,02041.8000,E,113.5,T,108.2,M,0.970,N,BARO W,S*13
$GPVTG,0.0,T,354.7,M,0.0,N,0.0,K*4B
$GPXTE,V,V,0.02,L,N,S*13
$PGRME,15.0,M,22.5,M,27.0,M*1A
$PGRMZ,-71,f,3*00
$PGRMM,WGS 84*06
$GPRTE,1,1,c,*37
$GPRMC,175040,V,6017.5857,N,02040.0082,E,0.0,0.0,060215,5.3,E,S*1C
$GPRMB,V,0.02,L,,BARO W,6017.2000,N,02041.8000,E,0.970,113.5,,V,S*1E
$GPGGA,175040,6017.5857,N,02040.0082,E,8,10,2.0,-21.6,M,21.0,M,,*57
$GPGSA,A,3,01,11,12,15,17,18,22,24,26,28,,,3.6,2.0,3.0*37
$GPGSV,3,2,10,17,44,107,47,18,21,286,41,22,17,325,40,24,45,277,47*79
$GPGLL,6017.5857,N,02040.0082,E,175040,V,S*46
$GPBOD,114.4,T,109.1,M,BARO W,*27
$GPBWC,175040,6017.2000,N,02041.8000,E,113.5,T,108.2,M,0.970,N,BARO W,S*1C
$GPVTG,0.0,T,354.7,M,0.0,N,0.0,K*4B
$GPXTE,V,V,0.02,L,N,S*13
$PGRME,15.0,M,22.5,M,27.0,M*1A
$PGRMZ,-71,f,3*00
$PGRMM,WGS 84*06
$GPRTE,1,1,c,*37
$GPRMC,175042,V,6017.5857,N,02040.0082,E,0.0,0.0,060215,5.3,E,S*1E
$GPRMB,V,0.02,L,,BARO W,6017.2000,N,02041.8000,E,0.970,113.5,,V,S*1E
$GPGGA,175042,6017.5857,N,02040.0082,E,8,10,2.0,-21.6,M,21.0,M,,*55
$GPGSA,A,3,01,11,12,15,17,18,22,24,26,28,,,3.6,2.0,3.0*37
$GPGSV,3,3,10,26,29,169,44,28,37,065,45*75
$GPGLL,6017.5857,N,02040.0082,E,175042,V,S*44
$GPBOD,114.4,T,109.1,M,BARO W,*27
$GPBWC,175042,6017.2000,N,02041.8000,E,113.5,T,108.2,M,0.970,N,BARO W,S*1E
$GPVTG,0.0,T,354.7,M,0.0,N,0.0,K*4B
$GPXTE,V,V,0.02,L,N,S*13
$PGRME,15.0,M,22.5,M,27.0,M*1A
$PGRMZ,-71,f,3*00
$PGRMM,WGS 84*06
$GPRTE,1,1,c,*37
$GPRMC,175044,V,6017.5857,N,02040.0082,E,0.0,0.0,060215,5.3,E,S*18
$GPRMB,V,0.02,L,,BARO W,6017.2000,N,02041.8000,E,0.970,113.5,,V,S*1E
$GPGGA,175044,6017.5857,N,02040.0082,E,8,10,2.0,-21.6,M,21.0,M,,*53
$GPGSA,A,3,01,11,12,15,17,18,22,24,26,28,,,3.6,2.0,3.0*37
$GPGSV,3,1,10,01,14,047,39,11,13,029,39,12,18,229,41,15,52,222,47*70
$GPGLL,6017.5857,N,02040.0082,E,175044,V,S*42
$GPBOD,114.4,T,109.1,M,BARO W,*27
$GPBWC,175044,6017.2000,N,02041.8000,E,113.5,T,108.2,M,0.970,N,BARO W,S*18
$GPVTG,0.0,T,354.7,M,0.0,N,0.0,K*4B
$GPXTE,V,V,0.02,L,N,S*13
$PGRME,15.0,M,22.5,M,27.0,M*1A
$PGRMZ,-71,f,3*00
$PGRMM,WGS 84*06
$GPRTE,1,1,c,*37
$GPRMC,175046,V,6017.5857,N,02040.0082,E,0.0,0.0,060215,5.3,E,S*1A
$GPRMB,V,0.02,L,,BARO W,6017.2000,N,02041.8000,E,0.970,113.5,,V,S*1E
$GPGGA,175046,6017.5857,N,02040.0082,E,8,10,2.0,-21.6,M,21.0,M,,*51
$GPGSA,A,3,01,11,12,15,17,18,22,24,26,28,,,3.6,2.0,3.0*37
$GPGSV,3,2,10,17,44,107,46,18,21,286,41,22,17,325,40,24,45,277,47*78
$GPGLL,6017.5857,N,02040.0082,E,175046,V,S*40
$GPBOD,114.4,T,109.1,M,BARO W,*27
$GPBWC,175046,6017.2000,N,02041.8000,E,113.5,T,108.2,M,0.970,N,BARO W,S*1A
$GPVTG,0.0,T,354.7,M,0.0,N,0.0,K*4B
$GPXTE,V,V,0.02,L,N,S*13
$PGRME,15.0,M,22.5,M,27.0,M*1A
$PGRMZ,-71,f,3*00
$PGRMM,WGS 84*06
$GPRTE,1,1,c,*37
$GPRMC,175048,V,6017.5857,N,02040.0082,E,0.0,0.0,060215,5.3,E,S*14
$GPRMB,V,0.02,L,,BARO W,6017.2000,N,02041.8000,E,0.970,113.5,,V,S*1E
$GPGGA,175048,6017.5857,N,02040.0082,E,8,10,2.0,-21.6,M,21.0,M,,*5F
$GPGSA,A,3,01,11,12,15,17,18,22,24,26,28,,,3.6,2.0,3.0*37
$GPGSV,3,3,10,26,29,169,44,28,37,065,45*75
$GPGLL,6017.5857,N,02040.0082,E,175048,V,S*4E
$GPBOD,114.4,T,109.1,M,BARO W,*27
$GPBWC,175048,6017.2000,N,02041.8000,E,113.5,T,108.2,M,0.970,N,BARO W,S*14
$GPVTG,0.0,T,354.7,M,0.0,N,0.0,K*4B
$GPXTE,V,V,0.02,L,N,S*13
$PGRME,15.0,M,22.5,M,27.0,M*1A
$PGRMZ,-71,f,3*00
$PGRMM,WGS 84*06
$GPRTE,1,1,c,*37
$GPRMC,175050,V,6017.5857,N,02040.0082,E,0.0,0.0,060215,5.3,E,S*1D
$GPRMB,V,0.02,L,,BARO W,6017.2000,N,02041.8000,E,0.970,113.5,,V,S*1E
$GPGGA,175050,6017.5857,N,02040.0082,E,8,10,2.0,-21.6,M,21.0,M,,*56
$GPGSA,A,3,01,11,12,15,17,18,22,24,26,28,,,3.6,2.0,3.0*37
$GPGSV,3,1,10,01,14,047,39,11,13,028,38,12,18,229,41,15,52,222,48*7F
$GPGLL,6017.5857,N,02040.0082,E,175050,V,S*47
$GPBOD,114.4,T,109.1,M,BARO W,*27
$GPBWC,175050,6017.2000,N,02041.8000,E,113.5,T,108.2,M,0.970,N,BARO W,S*1D
$GPVTG,0.0,T,354.7,M,0.0,N,0.0,K*4B
$GPXTE,V,V,0.02,L,N,S*13
$PGRME,15.0,M,22.5,M,27.0,M*1A
$PGRMZ,-71,f,3*00
$PGRMM,WGS 84*06
$GPRTE,1,1,c,*37
$GPRMC,175052,V,6017.5857,N,02040.0082,E,0.0,0.0,060215,5.3,E,S*1F
$GPRMB,V,0.02,L,,BARO W,6017.2000,N,02041.8000,E,0.970,113.5,,V,S*1E
$GPGGA,175052,6017.5857,N,02040.0082,E,8,10,2.0,-21.6,M,21.0,M,,*54
$GPGSA,A,3,01,11,12,15,17,18,22,24,26,28,,,3.6,2.0,3.0*37
$GPGSV,3,2,10,17,44,107,46,18,21,286,41,22,17,325,40,24,45,277,47*78
$GPGLL,6017.5857,N,02040.0082,E,175052,V,S*45
$GPBOD,114.4,T,109.1,M,BARO W,*27
$GPBWC,175052,6017.2000,N,02041.8000,E,113.5,T,108.2,M,0.970,N,BARO W,S*1F
$GPVTG,0.0,T,354.7,M,0.0,N,0.0,K*4B
$GPXTE,V,V,0.02,L,N,S*13
$PGRME,15.0,M,22.5,M,27.0,M*1A
$PGRMZ,-71,f,3*00
$PGRMM,WGS 84*06
$GPRTE,1,1,c,*37
$GPRMC,175054,V,6017.5857,N,02040.0082,E,0.0,0.0,060215,5.3,E,S*19
$GPRMB,V,0.02,L,,BARO W,6017.2000,N,02041.8000,E,0.970,113.5,,V,S*1E
$GPGGA,175054,6017.5857,N,02040.0082,E,8,10,2.0,-21.6,M,21.0,M,,*52
$GPGSA,A,3,01,11,12,15,17,18,22,24,26,28,,,3.6,2.0,3.0*37
$GPGSV,3,3,10,26,29,169,44,28,37,065,45*75
$GPGLL,6017.5857,N,02040.0082,E,175054,V,S*43
$GPBOD,114.4,T,109.1,M,BARO W,*27
$GPBWC,175054,6017.2000,N,02041.8000,E,113.5,T,108.2,M,0.970,N,BARO W,S*19
$GPVTG,0.0,T,354.7,M,0.0,N,0.0,K*4B
$GPXTE,V,V,0.02,L,N,S*13
$PGRME,15.0,M,22.5,M,27.0,M*1A
$PGRMZ,-71,f,3*00
$PGRMM,WGS 84*06
$GPRTE,1,1,c,*37
$GPRMC,175056,V,6017.5857,N,02040.0082,E,0.0,0.0,060215,5.3,E,S*1B
$GPRMB,V,0.02,L,,BARO W,6017.2000,N,02041.8000,E,0.970,113.5,,V,S*1E
$GPGGA,175056,6017.5857,N,02040.0082,E,8,10,2.0,-21.6,M,21.0,M,,*50
$GPGSA,A,3,01,11,12,15,17,18,22,24,26,28,,,3.6,2.0,3.0*37
$GPGSV,3,1,10,01,14,047,39,11,13,028,39,12,18,229,41,15,52,222,48*7E
$GPGLL,6017.5857,N,02040.0082,E,175056,V,S*41
$GPBOD,114.4,T,109.1,M,BARO W,*27
$GPBWC,175056,6017.2000,N,02041.8000,E,113.5,T,108.2,M,0.970,N,BARO W,S*1B
$GPVTG,0.0,T,354.7,M,0.0,N,0.0,K*4B
$GPXTE,V,V,0.02,L,N,S*13
$PGRME,15.0,M,22.5,M,27.0,M*1A
$PGRMZ,-71,f,3*00
$PGRMM,WGS 84*06
$GPRTE,1,1,c,*37
$GPRMC,175058,V,6017.5857,N,02040.0082,E,0.0,0.0,060215,5.3,E,S*15
$GPRMB,V,0.02,L,,BARO W,6017.2000,N,02041.8000,E,0.970,113.5,,V,S*1E
$GPGGA,175058,6017.5857,N,02040.0082,E,8,10,2.0,-21.6,M,21.0,M,,*5E
$GPGSA,A,3,01,11,12,15,17,18,22,24,26,28,,,3.6,2.0,3.0*37
$GPGSV,3,2,10,17,44,107,47,18,21,286,42,22,17,325,40,24,45,277,47*7A
$GPGLL,6017.5857,N,02040.0082,E,175058,V,S*4F
$GPBOD,114.4,T,109.1,M,BARO W,*27
$GPBWC,175058,6017.2000,N,02041.8000,E,113.5,T,108.2,M,0.970,N,BARO W,S*15
$GPVTG,0.0,T,354.7,M,0.0,N,0.0,K*4B
$GPXTE,V,V,0.02,L,N,S*13
$PGRME,15.0,M,22.5,M,27.0,M*1A
$PGRMZ,-71,f,3*00
$PGRMM,WGS 84*06
$GPRTE,1,1,c,*37
$GPRMC,175100,V,6017.5857,N,02040.0082,E,0.0,0.0,060215,5.3,E,S*19
$GPRMB,V,0.02,L,,BARO W,6017.2000,N,02041.8000,E,0.970,113.5,,V,S*1E
$GPGGA,175100,6017.5857,N,02040.0082,E,8,10,2.0,-21.6,M,21.0,M,,*52
$GPGSA,A,3,01,11,12,15,17,18,22,24,26,28,,,3.6,2.0,3.0*37
$GPGSV,3,3,10,26,29,169,44,28,37,065,45*75
$GPGLL,6017.5857,N,02040.0082,E,175100,V,S*43
$GPBOD,114.4,T,109.1,M,BARO W,*27
$GPBWC,175100,6017.2000,N,02041.8000,E,113.5,T,108.2,M,0.970,N,BARO W,S*19
$GPVTG,0.0,T,354.7,M,0.0,N,0.0,K*4B
$GPXTE,V,V,0.02,L,N,S*13
$PGRME,15.0,M,22.5,M,27.0,M*1A
$PGRMZ,-71,f,3*00
$PGRMM,WGS 84*06
$GPRTE,1,1,c,*37
$GPRMC,175102,V,6017.5857,N,02040.0082,E,0.0,0.0,060215,5.3,E,S*1B
$GPRMB,V,0.02,L,,BARO W,6017.2000,N,02041.8000,E,0.970,113.5,,V,S*1E
$GPGGA,175102,6017.5857,N,02040.0082,E,8,10,2.0,-21.6,M,21.0,M,,*50
$GPGSA,A,3,01,11,12,15,17,18,22,24,26,28,,,3.6,2.0,3.0*37
$GPGSV,3,1,10,01,14,047,39,11,13,028,38,12,18,229,40,15,52,222,48*7E
$GPGLL,6017.5857,N,02040.0082,E,175102,V,S*41
$GPBOD,114.4,T,109.1,M,BARO W,*27
$GPBWC,175102,6017.2000,N,02041.8000,E,113.5,T,108.2,M,0.970,N,BARO W,S*1B
$GPVTG,0.0,T,354.7,M,0.0,N,0.0,K*4B
$GPXTE,V,V,0.02,L,N,S*13
$PGRME,15.0,M,22.5,M,27.0,M*1A
$PGRMZ,-71,f,3*00
$PGRMM,WGS 84*06
$GPRTE,1,1,c,*37
$GPRMC,175104,V,6017.5857,N,02040.0082,E,0.0,0.0,060215,5.3,E,S*1D
$GPRMB,V,0.02,L,,BARO W,6017.2000,N,02041.8000,E,0.970,113.5,,V,S*1E
$GPGGA,175104,6017.5857,N,02040.0082,E,8,10,2.0,-21.6,M,21.0,M,,*56
$GPGSA,A,3,01,11,12,15,17,18,22,24,26,28,,,3.6,2.0,3.0*37
$GPGSV,3,2,10,17,44,107,46,18,21,286,41,22,17,325,40,24,45,277,47*78
$GPGLL,6017.5857,N,02040.0082,E,175104,V,S*47
$GPBOD,114.4,T,109.1,M,BARO W,*27
$GPBWC,175104,6017.2000,N,02041.8000,E,113.5,T,108.2,M,0.970,N,BARO W,S*1D
$GPVTG,0.0,T,354.7,M,0.0,N,0.0,K*4B
$GPXTE,V,V,0.02,L,N,S*13
$PGRME,15.0,M,22.5,M,27.0,M*1A
$PGRMZ,-71,f,3*00
$PGRMM,WGS 84*06
$GPRTE,1,1,c,*37
$GPRMC,175106,V,6017.5857,N,02040.0082,E,0.0,0.0,060215,5.3,E,S*1F
$GPRMB,V,0.02,L,,BARO W,6017.2000,N,02041.8000,E,0.970,113.5,,V,S*1E
$GPGGA,175106,6017.5857,N,02040.0082,E,8,10,2.0,-21.6,M,21.0,M,,*54
$GPGSA,A,3,01,11,12,15,17,18,22,24,26,28,,,3.6,2.0,3.0*37
$GPGSV,3,3,10,26,29,169,43,28,37,065,45*72
$GPGLL,6017.5857,N,02040.0082,E,175106,V,S*45
$GPBOD,114.4,T,109.1,M,BARO W,*27
$GPBWC,175106,6017.2000,N,02041.8000,E,113.5,T,108.2,M,0.970,N,BARO W,S*1F
$GPVTG,0.0,T,354.7,M,0.0,N,0.0,K*4B
$GPXTE,V,V,0.02,L,N,S*13
$PGRME,15.0,M,22.5,M,27.0,M*1A
$PGRMZ,-71,f,3*00
$PGRMM,WGS 84*06
$GPRTE,1,1,c,*37
$GPRMC,175108,V,6017.5857,N,02040.0082,E,0.0,0.0,060215,5.3,E,S*11
$GPRMB,V,0.02,L,,BARO W,6017.2000,N,02041.8000,E,0.970,113.5,,V,S*1E
$GPGGA,175108,6017.5857,N,02040.0082,E,8,10,2.0,-21.6,M,21.0,M,,*5A
$GPGSA,A,3,01,11,12,15,17,18,22,24,26,28,,,3.6,2.0,3.0*37
$GPGSV,3,1,10,01,14,047,39,11,13,028,39,12,18,229,40,15,52,221,48*7C
$GPGLL,6017.5857,N,02040.0082,E,175108,V,S*4B
$GPBOD,114.4,T,109.1,M,BARO W,*27
$GPBWC,175108,6017.2000,N,02041.8000,E,113.5,T,108.2,M,0.970,N,BARO W,S*11
$GPVTG,0.0,T,354.7,M,0.0,N,0.0,K*4B
$GPXTE,V,V,0.02,L,N,S*13
$PGRME,15.0,M,22.5,M,27.0,M*1A
$PGRMZ,-71,f,3*00
$PGRMM,WGS 84*06
$GPRTE,1,1,c,*37
$GPRMC,175110,V,6017.5857,N,02040.0082,E,0.0,0.0,060215,5.3,E,S*18
$GPRMB,V,0.02,L,,BARO W,6017.2000,N,02041.8000,E,0.970,113.5,,V,S*1E
$GPGGA,175110,6017.5857,N,02040.0082,E,8,10,2.0,-21.6,M,21.0,M,,*53
$GPGSA,A,3,01,11,12,15,17,18,22,24,26,28,,,3.6,2.0,3.0*37
$GPGSV,3,2,10,17,44,107,47,18,21,286,42,22,17,325,39,24,45,277,47*74
$GPGLL,6017.5857,N,02040.0082,E,175110,V,S*42
$GPBOD,114.4,T,109.1,M,BARO W,*27
$GPBWC,175110,6017.2000,N,02041.8000,E,113.5,T,108.2,M,0.970,N,BARO W,S*18
$GPVTG,0.0,T,354.7,M,0.0,N,0.0,K*4B
$GPXTE,V,V,0.02,L,N,S*13
$PGRME,15.0,M,22.5,M,27.0,M*1A
$PGRMZ,-71,f,3*00
$PGRMM,WGS 84*06
$GPRTE,1,1,c,*37
$GPRMC,175112,V,6017.5857,N,02040.0082,E,0.0,0.0,060215,5.3,E,S*1A
$GPRMB,V,0.02,L,,BARO W,6017.2000,N,02041.8000,E,0.970,113.5,,V,S*1E
$GPGGA,175112,6017.5857,N,02040.0082,E,8,10,2.0,-21.6,M,21.0,M,,*51
$GPGSA,A,3,01,11,12,15,17,18,22,24,26,28,,,3.6,2.0,3.0*37
$GPGSV,3,3,10,26,29,169,43,28,37,065,45*72
$GPGLL,6017.5857,N,02040.0082,E,175112,V,S*40
$GPBOD,114.4,T,109.1,M,BARO W,*27
$GPBWC,175112,6017.2000,N,02041.8000,E,113.5,T,108.2,M,0.970,N,BARO W,S*1A
$GPVTG,0.0,T,354.7,M,0.0,N,0.0,K*4B
$GPXTE,V,V,0.02,L,N,S*13
$PGRME,15.0,M,22.5,M,27.0,M*1A
$PGRMZ,-71,f,3*00
$PGRMM,WGS 84*06
$GPRTE,1,1,c,*37
$GPRMC,175114,V,6017.5857,N,02040.0082,E,0.0,0.0,060215,5.3,E,S*1C
$GPRMB,V,0.02,L,,BARO W,6017.2000,N,02041.8000,E,0.970,113.5,,V,S*1E
$GPGGA,175114,6017.5857,N,02040.0082,E,8,10,2.0,-21.6,M,21.0,M,,*57
$GPGSA,A,3,01,11,12,15,17,18,22,24,26,28,,,3.6,2.0,3.0*37
$GPGSV,3,1,10,01,14,047,40,11,13,028,39,12,18,229,40,15,52,221,48*72
$GPGLL,6017.5857,N,02040.0082,E,175114,V,S*46
$GPBOD,114.4,T,109.1,M,BARO W,*27
$GPBWC,175114,6017.2000,N,02041.8000,E,113.5,T,108.2,M,0.970,N,BARO W,S*1C
$GPVTG,0.0,T,354.7,M,0.0,N,0.0,K*4B
$GPXTE,V,V,0.02,L,N,S*13
$PGRME,15.0,M,22.5,M,27.0,M*1A
$PGRMZ,-71,f,3*00
$PGRMM,WGS 84*06
$GPRTE,1,1,c,*37
$GPRMC,175116,V,6017.5857,N,02040.0082,E,0.0,0.0,060215,5.3,E,S*1E
$GPRMB,V,0.02,L,,BARO W,6017.2000,N,02041.8000,E,0.970,113.5,,V,S*1E
$GPGGA,175116,6017.5857,N,02040.0082,E,8,10,2.0,-21.6,M,21.0,M,,*55
$GPGSA,A,3,01,11,12,15,17,18,22,24,26,28,,,3.6,2.0,3.0*37
$GPGSV,3,2,10,17,45,106,47,18,21,285,42,22,17,325,39,24,45,277,47*77
$GPGLL,6017.5857,N,02040.0082,E,175116,V,S*44
$GPBOD,114.4,T,109.1,M,BARO W,*27
