$IIVWT,008,L,02.81,N,01.45,M,,*29
$IIHDT,,T*0C
$GPWCV,,N,,D*5F
$GPXTE,A,A,,R,N,D*06
$GPZDA,104602,,,,00,*49
$IIDBT,014.17,f,004.32,M,002.33,F*25
$GPGLL,6009.100,N,02458.683,E,104603,A,D*4A
$GPGSV,,,,,,,,,,,,,,,,,,,*79
$IIHDM,,M*0C
$IIHDT,,T*0C
$IIMWD,,,,,02.48,N,01.28,M*58
$IIVDR,,,,,,N*0E
$IIVHW,,T,,M,06.11,N,11.31,K*51
$IIVPW,6.06,N,,*01
$IIVTG,087.08,T,087.08,M,5.97,N,,,D*6F
$IIMWV,003,R,08.74,N,A*2B
$IIVWT,010,R,02.48,N,01.28,M,,*30
$IIHDT,,T*0C
$GPWCV,,N,,D*5F
$GPXTE,A,A,,R,N,D*06
$GPZDA,104604,,,,00,*4F
$IIDBT,012.30,f,003.75,M,002.02,F*20
$GPGLL,6009.100,N,02458.689,E,104605,A,D*46
$GPGSV,,,,,,,,,,,,,,,,,,,*79
$IIHDM,,M*0C
$IIHDT,,T*0C
$IIMWD,,,,,02.52,N,01.30,M*5A
$IIVDR,,,,,,N*0E
$IIVHW,,T,,M,06.14,N,11.37,K*52
$IIVPW,5.90,N,,*0D
$IIVTG,087.12,T,087.12,M,5.87,N,,,D*6E
$IIMWV,013,T,02.50,N,A*20
$IIVWT,013,R,02.50,N,01.29,M,,*3B
$IIHDT,,T*0C
$GPWCV,,N,,D*5F
$GPXTE,A,A,,R,N,D*06
$GPZDA,104606,,,,00,*4D
$IIDBT,013.54,f,004.13,M,002.23,F*27
$GPGLL,6009.100,N,02458.696,E,104607,A,D*4A
$GPGSV,,,,,,,,,,,,,,,,,,,*79
$IIHDM,,M*0C
$IIHDT,,T*0C
$IIMWD,,,,,02.58,N,01.33,M*53
$IIVDR,,,,,,N*0E
$IIVHW,,T,,M,06.14,N,11.37,K*52
$IIVPW,6.11,N,,*07
$IIVTG,089.43,T,089.43,M,6.02,N,,,D*60
$IIMWV,001,R,08.74,N,A*29
$IIVWT,004,R,02.66,N,01.37,M,,*37
$IIHDT,,T*0C
$GPWCV,,N,,D*5F
$GPXTE,A,A,,R,N,D*06
$GPZDA,104608,,,,00,*43
$IIDBT,014.89,f,004.54,M,002.45,F*23
$GPGLL,6009.100,N,02458.703,E,104609,A,D*49
$GPGSV,,,,,,,,,,,,,,,,,,,*79
$IIHDM,,M*0C
$IIHDT,,T*0C
$IIMWD,,,,,02.56,N,01.32,M*5C
$IIVDR,,,,,,N*0E
$IIVHW,,T,,M,06.08,N,11.26,K*5F
$IIVPW,5.93,N,,*0E
$IIVTG,088.83,T,088.83,M,6.08,N,,,D*6A
$IIMWV,011,T,03.11,N,A*26
$IIVWT,011,R,03.11,N,01.60,M,,*30
$IIHDT,,T*0C
$GPWCV,,N,,D*5F
$GPXTE,A,A,,R,N,D*06
$GPZDA,104610,,,,00,*4A
$IIDBT,016.76,f,005.11,M,002.76,F*21
$GPGLL,6009.100,N,02458.713,E,104611,A,D*41
$GPGSV,,,,,,,,,,,,,,,,,,,*79
$IIHDM,,M*0C
$IIHDT,,T*0C
$IIMWD,,,,,02.72,N,01.40,M*5F
$IIVDR,,,,,,N*0E
$IIVHW,,T,,M,06.07,N,11.24,K*52
$IIVPW,6.02,N,,*05
$IIVTG,089.57,T,089.57,M,5.87,N,,,D*6E
$IIMWV,000,R,08.74,N,A*28
$IIVWT,001,R,02.52,N,01.30,M,,*32
$IIHDT,,T*0C
$GPWCV,,N,,D*5F
$GPXTE,A,A,,R,N,D*06
$GPZDA,104613,,,,00,*49
$IIDBT,018.17,f,005.54,M,002.99,F*28
$GPGLL,6009.100,N,02458.719,E,104613,A,D*49
$GPGSV,,,,,,,,,,,,,,,,,,,*79
$IIHDM,,M*0C
$IIHDT,,T*0C
$IIMWD,,,,,02.85,N,01.47,M*50
$IIVDR,,,,,,N*0E
$IIVHW,,T,,M,06.16,N,11.40,K*50
$IIVPW,6.25,N,,*00
$IIVTG,090.52,T,090.52,M,5.92,N,,,D*6A
$IIMWV,003,T,02.89,N,A*25
$IIVWT,003,R,02.89,N,01.49,M,,*38
$IIHDT,,T*0C
$GPWCV,,N,,D*5F
$GPXTE,A,A,,R,N,D*06
$GPZDA,104615,,,,00,*4F
$IIDBT,021.78,f,006.64,M,003.58,F*27
$GPGLL,6009.100,N,02458.726,E,104615,A,D*43
$GPGSV,,,,,,,,,,,,,,,,,,,*79
$IIHDM,,M*0C
$IIHDT,,T*0C
$IIMWD,,,,,03.61,N,01.86,M*56
$IIVDR,,,,,,N*0E
$IIVHW,,T,,M,06.15,N,11.39,K*5D
$IIVPW,5.81,N,,*0D
$IIVTG,091.10,T,091.10,M,6.00,N,,,D*62
$IIMWV,003,R,09.13,N,A*2B
$IIVWT,008,R,02.93,N,01.51,M,,*31
$IIHDT,,T*0C
$GPWCV,,N,,D*5F
$GPXTE,A,A,,R,N,D*06
$GPZDA,104617,,,,00,*4D
$IIDBT,025.32,f,007.72,M,004.17,F*27
$GPGLL,6009.100,N,02458.733,E,104617,A,D*45
$GPGSV,,,,,,,,,,,,,,,,,,,*79
$IIHDM,,M*0C
$IIHDT,,T*0C
$IIMWD,,,,,03.22,N,01.66,M*5F
$IIVDR,,,,,,N*0E
$IIVHW,,T,,M,06.10,N,11.29,K*59
$IIVPW,5.60,N,,*02
$IIVTG,091.52,T,091.52,M,5.95,N,,,D*6D
$IIMWV,020,T,03.07,N,A*23
$IIVWT,020,R,03.07,N,01.58,M,,*3E
$IIHDT,,T*0C
$GPWCV,,N,,D*5F
$GPXTE,A,A,,R,N,D*06
$GPZDA,104619,,,,00,*43
$IIDBT,025.85,f,007.88,M,004.25,F*2F
$GPGLL,6009.100,N,02458.739,E,104619,A,D*41
$GPGSV,,,,,,,,,,,,,,,,,,,*79
$IIHDM,,M*0C
$IIHDT,,T*0C
$IIMWD,,,,,02.99,N,01.54,M*5F
$IIVDR,,,,,,N*0E
$IIVHW,,T,,M,06.11,N,11.31,K*51
$IIVPW,6.11,N,,*07
$IIVTG,092.65,T,092.65,M,5.99,N,,,D*61
$IIMWV,003,R,09.52,N,A*2E
$IIVWT,007,R,03.55,N,01.83,M,,*3A
$IIHDT,,T*0C
$GPWCV,,N,,D*5F
$GPXTE,A,A,,R,N,D*06
$GPZDA,104621,,,,00,*48
$IIDBT,026.60,f,008.11,M,004.38,F*24
$GPGLL,6009.100,N,02458.746,E,104621,A,D*42
$GPGSV,,,,,,,,,,,,,,,,,,,*79
$IIHDM,,M*0C
$IIHDT,,T*0C
$IIMWD,,,,,03.38,N,01.74,M*57
$IIVDR,,,,,,N*0E
$IIVHW,,T,,M,06.11,N,11.31,K*51
$IIVPW,6.03,N,,*04
$IIVTG,092.96,T,092.96,M,6.00,N,,,D*62
$IIMWV,006,T,03.07,N,A*27
$IIVWT,006,R,03.07,N,01.58,M,,*3A
$IIHDT,,T*0C
$GPWCV,,N,,D*5F
$GPXTE,A,A,,R,N,D*06
$GPZDA,104623,,,,00,*4A
$IIDBT,027.29,f,008.32,M,004.49,F*2F
$GPGLL,6009.100,N,02458.753,E,104623,A,D*44
$GPGSV,,,,,,,,,,,,,,,,,,,*79
$IIHDM,,M*0C
$IIHDT,,T*0C
$IIMWD,,,,,03.80,N,01.96,M*58
$IIVDR,,,,,,N*0E
$IIVHW,,T,,M,06.04,N,11.18,K*5E
$IIVPW,5.81,N,,*0D
$IIVTG,092.76,T,092.76,M,5.87,N,,,D*6E
$IIMWV,004,R,09.52,N,A*29
$IIVWT,011,R,03.77,N,01.94,M,,*3B
$IIHDT,,T*0C
$GPWCV,,N,,D*5F
$GPXTE,A,A,,R,N,D*06
$GPZDA,104625,,,,00,*4C
$IIDBT,027.91,f,008.51,M,004.59,F*28
$GPGLL,6009.099,N,02458.759,E,104625,A,D*49
$GPGSV,,,,,,,,,,,,,,,,,,,*79
$IIHDM,,M*0C
$IIHDT,,T*0C
$IIMWD,,,,,03.51,N,01.81,M*52
$IIVDR,,,,,,N*0E
$IIVHW,,T,,M,05.96,N,11.03,K*5C
$IIVPW,5.98,N,,*05
$IIVTG,092.94,T,092.94,M,5.69,N,,,D*6E
$IIMWV,000,T,03.44,N,A*26
$IIVWT,000,R,03.44,N,01.77,M,,*36
$IIHDT,,T*0C
$GPWCV,,N,,D*5F
$GPXTE,A,A,,R,N,D*06
$GPZDA,104627,,,,00,*4E
$IIDBT,028.44,f,008.67,M,004.68,F*28
$GPGLL,6009.099,N,02458.765,E,104627,A,D*44
$GPGSV,,,,,,,,,,,,,,,,,,,*79
$IIHDM,,M*0C
$IIHDT,,T*0C
$IIMWD,,,,,03.49,N,01.80,M*5A
$IIVDR,,,,,,N*0E
$IIVHW,,T,,M,06.04,N,11.18,K*5E
$IIVPW,6.11,N,,*07
$IIVTG,093.29,T,093.29,M,5.75,N,,,D*63
$IIMWV,004,R,09.52,N,A*29
$IIVWT,011,R,03.28,N,01.69,M,,*33
$IIHDT,,T*0C
$GPWCV,,N,,D*5F
$GPXTE,A,A,,R,N,D*06
$GPZDA,104629,,,,00,*40
$IIDBT,029.95,f,009.13,M,004.93,F*23
$GPGLL,6009.099,N,02458.772,E,104629,A,D*4C
$GPGSV,,,,,,,,,,,,,,,,,,,*79
$IIHDM,,M*0C
$IIHDT,,T*0C
$IIMWD,,,,,03.55,N,01.83,M*54
$IIVDR,,,,,,N*0E
$IIVHW,,T,,M,06.12,N,11.33,K*50
$IIVPW,6.12,N,,*04
$IIVTG,093.40,T,093.40,M,5.96,N,,,D*6E
$IIMWV,359,T,03.20,N,A*2B
$IIVWT,001,L,03.20,N,01.65,M,,*28
$IIHDT,,T*0C
$GPWCV,,N,,D*5F
$GPXTE,A,A,,R,N,D*06
$GPZDA,104631,,,,00,*49
$IIDBT,030.83,f,009.40,M,005.08,F*29
$GPGLL,6009.099,N,02458.779,E,104631,A,D*4E
$GPGSV,,,,,,,,,,,,,,,,,,,*79
$IIHDM,,M*0C
$IIHDT,,T*0C
$IIMWD,,,,,03.47,N,01.79,M*52
$IIVDR,,,,,,N*0E
$IIVHW,,T,,M,06.10,N,11.29,K*59
$IIVPW,6.02,N,,*05
$IIVTG,094.18,T,094.18,M,6.12,N,,,D*61
$IIMWV,001,R,09.52,N,A*2C
$IIVWT,002,R,03.32,N,01.71,M,,*33
$IIHDT,,T*0C
$GPWCV,,N,,D*5F
$GPXTE,A,A,,R,N,D*06
$GPZDA,104633,,,,00,*4B
$IIDBT,031.65,f,009.65,M,005.21,F*2C
$GPGLL,6009.098,N,02458.786,E,104633,A,D*4D
$GPGSV,,,,,,,,,,,,,,,,,,,*79
$IIHDM,,M*0C
$IIHDT,,T*0C
$IIMWD,,,,,03.55,N,01.83,M*54
$IIVDR,,,,,,N*0E
$IIVHW,,T,,M,06.12,N,11.33,K*50
$IIVPW,6.07,N,,*00
$IIVTG,095.37,T,095.37,M,6.13,N,,,D*60
$IIMWV,013,T,03.73,N,A*20
$IIVWT,013,R,03.73,N,01.92,M,,*3B
$IIHDT,,T*0C
$GPWCV,,N,,D*5F
$GPXTE,A,A,,R,N,D*06
$GPZDA,104635,,,,00,*4D
$IIDBT,032.61,f,009.94,M,005.37,F*22
$GPGLL,6009.098,N,02458.792,E,104635,A,D*4E
$GPGSV,,,,,,,,,,,,,,,,,,,*79
$IIHDM,,M*0C
$IIHDT,,T*0C
$IIMWD,,,,,04.04,N,02.08,M*57
$IIVDR,,,,,,N*0E
$IIVHW,,T,,M,06.10,N,11.29,K*59
$IIVPW,5.87,N,,*0B
$IIVTG,096.25,T,096.25,M,6.06,N,,,D*64
$IIMWV,005,R,09.71,N,A*29
$IIVWT,014,R,03.55,N,01.83,M,,*38
$IIHDT,,T*0C
$GPWCV,,N,,D*5F
$GPXTE,A,A,,R,N,D*06
$GPZDA,104637,,,,00,*4F
$IIDBT,033.56,f,010.23,M,005.52,F*20
$GPGLL,6009.098,N,02458.799,E,104637,A,D*47
$GPGSV,,,,,,,,,,,,,,,,,,,*79
$IIHDM,,M*0C
$IIHDT,,T*0C
$IIMWD,,,,,03.98,N,02.05,M*58
$IIVDR,,,,,,N*0E
$IIVHW,,T,,M,06.08,N,11.26,K*5F
$IIVPW,5.67,N,,*05
$IIVTG,096.86,T,096.86,M,6.01,N,,,D*63
$IIMWV,013,T,03.47,N,A*27
$IIVWT,013,R,03.47,N,01.79,M,,*39
$IIHDT,,T*0C
$GPWCV,,N,,D*5F
$GPXTE,A,A,,R,N,D*06
$GPZDA,104639,,,,00,*41
$IIDBT,033.95,f,010.35,M,005.59,F*23
$GPGLL,6009.097,N,02458.806,E,104639,A,D*4F
$GPGSV,,,,,,,,,,,,,,,,,,,*79
$IIHDM,,M*0C
$IIHDT,,T*0C
$IIMWD,,,,,04.21,N,02.17,M*5E
$IIVDR,,,,,,N*0E
$IIVHW,,T,,M,06.06,N,11.22,K*55
$IIVPW,5.84,N,,*08
$IIVTG,096.89,T,096.89,M,6.00,N,,,D*62
$IIMWV,001,R,10.10,N,A*22
$IIVWT,003,R,04.12,N,02.12,M,,*31
$IIHDT,,T*0C
$GPWCV,,N,,D*5F
$GPXTE,A,A,,R,N,D*06
$GPZDA,104641,,,,00,*4E
$IIDBT,034.51,f,010.52,M,005.68,F*2F
$GPGLL,6009.097,N,02458.812,E,104641,A,D*45
$GPGSV,,,,,,,,,,,,,,,,,,,*79
$IIHDM,,M*0C
$IIHDT,,T*0C
$IIMWD,,,,,04.25,N,02.19,M*54
$IIVDR,,,,,,N*0E
$IIVHW,,T,,M,06.01,N,11.13,K*50
$IIVPW,5.79,N,,*0A
$IIVTG,097.20,T,097.20,M,6.00,N,,,D*62
$IIMWV,004,T,04.08,N,A*2D
$IIVWT,004,R,04.08,N,02.10,M,,*3F
$IIHDT,,T*0C
$GPWCV,,N,,D*5F
$GPXTE,A,A,,R,N,D*06
$GPZDA,104643,,,,00,*4C
$IIDBT,034.38,f,010.48,M,005.66,F*25
$GPGLL,6009.096,N,02458.819,E,104644,A,D*4A
$GPGSV,,,,,,,,,,,,,,,,,,,*79
$IIHDM,,M*0C
$IIHDT,,T*0C
$IIMWD,,,,,04.25,N,02.19,M*54
$IIVDR,,,,,,N*0E
$IIVHW,,T,,M,05.98,N,11.07,K*56
$IIVPW,5.80,N,,*0C
$IIVTG,097.93,T,097.93,M,5.95,N,,,D*6D
$IIMWV,000,R,10.10,N,A*23
$IIVWT,001,R,04.10,N,02.11,M,,*32
$IIHDT,,T*0C
$GPWCV,,N,,D*5F
$GPXTE,A,A,,R,N,D*06
$GPZDA,104645,,,,00,*4A
$IIDBT,034.74,f,010.59,M,005.72,F*28
$GPGLL,6009.096,N,02458.825,E,104646,A,D*47
$GPGSV,,,,,,,,,,,,,,,,,,,*79
$IIHDM,,M*0C
$IIHDT,,T*0C
$IIMWD,,,,,03.84,N,01.98,M*52
$IIVDR,,,,,,N*0E
$IIVHW,,T,,M,05.97,N,11.05,K*5B
$IIVPW,5.83,N,,*0F
$IIVTG,098.23,T,098.23,M,5.91,N,,,D*69
$IIMWV,005,T,04.02,N,A*26
$IIVWT,005,R,04.02,N,02.07,M,,*32
$IIHDT,,T*0C
$GPWCV,,N,,D*5F
$GPXTE,A,A,,R,N,D*06
$GPZDA,104647,,,,00,*48
$IIDBT,034.41,f,010.49,M,005.67,F*2B
$GPGLL,6009.095,N,02458.832,E,104648,A,D*4C
$GPGSV,,,,,,,,,,,,,,,,,,,*79
$IIHDM,,M*0C
$IIHDT,,T*0C
$IIMWD,,,,,04.00,N,02.06,M*5D
$IIVDR,,,,,,N*0E
$IIVHW,,T,,M,06.00,N,11.11,K*53
$IIVPW,6.10,N,,*06
$IIVTG,099.28,T,099.28,M,5.90,N,,,D*68
$IIMWV,000,R,10.10,N,A*23
$IIVWT,000,R,03.92,N,02.02,M,,*3C
$IIHDT,,T*0C
$GPWCV,,N,,D*5F
$GPXTE,A,A,,R,N,D*06
$GPZDA,104649,,,,00,*46
$IIDBT,034.51,f,010.52,M,005.68,F*2F
$GPGLL,6009.095,N,02458.838,E,104650,A,D*4F
$GPGSV,,,,,,,,,,,,,,,,,,,*79
$IIHDM,,M*0C
$IIHDT,,T*0C
$IIMWD,,,,,03.88,N,02.00,M*5C
$IIVDR,,,,,,N*0E
$IIVHW,,T,,M,06.07,N,11.24,K*52
$IIVPW,6.18,N,,*0E
$IIVTG,101.12,T,101.12,M,5.98,N,,,D*60
$IIMWV,354,T,03.96,N,A*2B
$IIVWT,006,L,03.96,N,02.04,M,,*26
$IIHDT,,T*0C
$GPWCV,,N,,D*5F
$GPXTE,A,A,,R,N,D*06
$GPZDA,104651,,,,00,*4F
$IIDBT,034.54,f,010.53,M,005.69,F*2A
$GPGLL,6009.094,N,02458.845,E,104652,A,D*46
$GPGSV,,,,,,,,,,,,,,,,,,,*79
$IIHDM,,M*0C
$IIHDT,,T*0C
$IIMWD,,,,,03.86,N,01.99,M*51
$IIVDR,,,,,,N*0E
$IIVHW,,T,,M,06.12,N,11.33,K*50
$IIVPW,6.19,N,,*0F
$IIVTG,105.78,T,105.78,M,6.12,N,,,D*61
$IIMWV,002,R,10.10,N,A*21
$IIVWT,005,R,03.88,N,02.00,M,,*30
$IIHDT,,T*0C
$GPWCV,,N,,D*5F
$GPXTE,A,A,,R,N,D*06
$GPZDA,104653,,,,00,*4D
$IIDBT,034.84,f,010.62,M,005.74,F*29
$GPGLL,6009.092,N,02458.855,E,104654,A,D*47
$GPGSV,,,,,,,,,,,,,,,,,,,*79
$IIHDM,,M*0C
$IIHDT,,T*0C
$IIMWD,,,,,04.50,N,02.32,M*5F
$IIVDR,,,,,,N*0E
$IIVHW,,T,,M,06.10,N,11.29,K*59
$IIVPW,5.91,N,,*0C
$IIVTG,106.92,T,106.92,M,6.16,N,,,D*65
$IIMWV,359,T,04.10,N,A*2F
$IIVWT,001,L,04.10,N,02.11,M,,*2C
$IIHDT,,T*0C
$GPWCV,,N,,D*5F
$GPXTE,A,A,,R,N,D*06
$GPZDA,104656,,,,00,*48
$IIDBT,035.10,f,010.70,M,005.78,F*2A
$GPGLL,6009.091,N,02458.861,E,104656,A,D*41
$GPGSV,,,,,,,,,,,,,,,,,,,*79
$IIHDM,,M*0C
$IIHDT,,T*0C
$IIMWD,,,,,05.09,N,02.62,M*57
$IIVDR,,,,,,N*0E
$IIVHW,,T,,M,06.07,N,11.24,K*52
$IIVPW,5.92,N,,*0F
$IIVTG,106.13,T,106.13,M,6.07,N,,,D*65
$IIMWV,000,R,10.49,N,A*2F
$IIVWT,001,R,04.41,N,02.27,M,,*33
$IIHDT,,T*0C
$GPWCV,,N,,D*5F
$GPXTE,A,A,,R,N,D*06
$GPZDA,104658,,,,00,*46
$IIDBT,035.20,f,010.73,M,005.79,F*2B
$GPGLL,6009.091,N,02458.868,E,104658,A,D*46
$GPGSV,,,,,,,,,,,,,,,,,,,*79
$IIHDM,,M*0C
$IIHDT,,T*0C
$IIMWD,,,,,04.68,N,02.41,M*50
$IIVDR,,,,,,N*0E
$IIVHW,,T,,M,06.05,N,11.20,K*54
$IIVPW,6.15,N,,*03
$IIVTG,104.21,T,104.21,M,5.92,N,,,D*6A
$IIMWV,006,T,04.76,N,A*26
$IIVWT,006,R,04.76,N,02.45,M,,*34
$IIHDT,,T*0C
$GPWCV,,N,,D*5F
$GPXTE,A,A,,R,N,D*06
$GPZDA,104700,,,,00,*4A
$IIDBT,035.79,f,010.91,M,005.89,F*24
$GPGLL,6009.090,N,02458.874,E,104700,A,D*46
$GPGSV,,,,,,,,,,,,,,,,,,,*79
$IIHDM,,M*0C
$IIHDT,,T*0C
$IIMWD,,,,,04.87,N,02.51,M*50
$IIVDR,,,,,,N*0E
$IIVHW,,T,,M,06.03,N,11.16,K*57
$IIVPW,5.99,N,,*04
$IIVTG,106.78,T,106.78,M,5.95,N,,,D*6D
$IIMWV,002,R,10.88,N,A*20
$IIVWT,005,R,04.85,N,02.50,M,,*3F
$IIHDT,,T*0C
$GPWCV,,N,,D*5F
$GPXTE,A,A,,R,N,D*06
$GPZDA,104702,,,,00,*48
$IIDBT,035.53,f,010.83,M,005.85,F*23
$GPGLL,6009.089,N,02458.880,E,104702,A,D*47
$GPGSV,,,,,,,,,,,,,,,,,,,*79
$IIHDM,,M*0C
$IIHDT,,T*0C
$IIMWD,,,,,04.29,N,02.21,M*53
$IIVDR,,,,,,N*0E
$IIVHW,,T,,M,06.04,N,11.18,K*5E
$IIVPW,6.19,N,,*0F
$IIVTG,109.55,T,109.55,M,6.04,N,,,D*66
$IIMWV,359,T,04.37,N,A*2A
$IIVWT,001,L,04.37,N,02.25,M,,*2E
$IIHDT,,T*0C
$GPWCV,,N,,D*5F
$GPXTE,A,A,,R,N,D*06
$GPZDA,104704,,,,00,*4E
$IIDBT,035.59,f,010.85,M,005.86,F*2C
$GPGLL,6009.087,N,02458.886,E,104704,A,D*49
$GPGSV,,,,,,,,,,,,,,,,,,,*79
$IIHDM,,M*0C
$IIHDT,,T*0C
$IIMWD,,,,,04.78,N,02.46,M*56
$IIVDR,,,,,,N*0E
$IIVHW,,T,,M,06.09,N,11.27,K*5F
$IIVPW,6.08,N,,*0F
$IIVTG,109.69,T,109.69,M,6.01,N,,,D*63
$IIMWV,357,R,10.88,N,A*23
$IIVWT,008,L,04.74,N,02.44,M,,*27
$IIHDT,,T*0C
$GPWCV,,N,,D*5F
$GPXTE,A,A,,R,N,D*06
$GPZDA,104706,,,,00,*4C
$IIDBT,035.95,f,010.96,M,005.92,F*2B
$GPGLL,6009.086,N,02458.893,E,104706,A,D*4E
$GPGSV,,,,,,,,,,,,,,,,,,,*79
$IIHDM,,M*0C
$IIHDT,,T*0C
$IIMWD,,,,,04.27,N,02.20,M*5C
$IIVDR,,,,,,N*0E
$IIVHW,,T,,M,06.13,N,11.35,K*57
$IIVPW,6.19,N,,*0F
$IIVTG,107.87,T,107.87,M,6.03,N,,,D*61
$IIMWV,358,T,04.68,N,A*21
$IIVWT,002,L,04.68,N,02.41,M,,*25
$IIHDT,,T*0C
$GPWCV,,N,,D*5F
$GPXTE,A,A,,R,N,D*06
$GPZDA,104708,,,,00,*42
$IIDBT,036.41,f,011.10,M,005.99,F*25
$GPGLL,6009.085,N,02458.899,E,104708,A,D*49
$GPGSV,,,,,,,,,,,,,,,,,,,*79
$IIHDM,,M*0C
$IIHDT,,T*0C
$IIMWD,,,,,04.45,N,02.29,M*51
$IIVDR,,,,,,N*0E
$IIVHW,,T,,M,06.13,N,11.35,K*57
$IIVPW,5.93,N,,*0E
$IIVTG,106.57,T,106.57,M,6.08,N,,,D*6A
$IIMWV,356,R,10.88,N,A*22
$IIVWT,010,L,04.70,N,02.42,M,,*2C
$IIHDT,,T*0C
$GPWCV,,N,,D*5F
$GPXTE,A,A,,R,N,D*06
$GPZDA,104710,,,,00,*4B
$IIDBT,036.18,f,011.03,M,005.96,F*24
$GPGLL,6009.084,N,02458.906,E,104710,A,D*46
$GPGSV,,,,,,,,,,,,,,,,,,,*79
$IIHDM,,M*0C
$IIHDT,,T*0C
$IIMWD,,,,,04.50,N,02.32,M*5F
$IIVDR,,,,,,N*0E
$IIVHW,,T,,M,06.12,N,11.33,K*50
$IIVPW,5.92,N,,*0F
$IIVTG,106.29,T,106.29,M,6.10,N,,,D*63
$IIMWV,358,T,04.35,N,A*29
$IIVWT,002,L,04.35,N,02.24,M,,*2E
$IIHDT,,T*0C
$GPWCV,,N,,D*5F
$GPXTE,A,A,,R,N,D*06
$GPZDA,104712,,,,00,*49
$IIDBT,036.31,f,011.07,M,005.98,F*25
$GPGLL,6009.083,N,02458.912,E,104712,A,D*46
$GPGSV,,,,,,,,,,,,,,,,,,,*79
$IIHDM,,M*0C
$IIHDT,,T*0C
$IIMWD,,,,,04.50,N,02.32,M*5F
$IIVDR,,,,,,N*0E
$IIVHW,,T,,M,06.07,N,11.24,K*52
$IIVPW,5.95,N,,*08
$IIVTG,107.65,T,107.65,M,6.02,N,,,D*60
$IIMWV,359,R,10.88,N,A*2D
$IIVWT,002,L,04.89,N,02.52,M,,*28
$IIHDT,,T*0C
$GPWCV,,N,,D*5F
$GPXTE,A,A,,R,N,D*06
$GPZDA,104714,,,,00,*4F
$IIDBT,036.41,f,011.10,M,005.99,F*25
$GPGLL,6009.082,N,02458.919,E,104714,A,D*4A
$GPGSV,,,,,,,,,,,,,,,,,,,*79
$IIHDM,,M*0C
$IIHDT,,T*0C
$IIMWD,,,,,04.47,N,02.30,M*5B
$IIVDR,,,,,,N*0E
$IIVHW,,T,,M,06.07,N,11.24,K*52
$IIVPW,5.92,N,,*0F
$IIVTG,108.46,T,108.46,M,5.96,N,,,D*6E
$IIMWV,007,T,03.98,N,A*20
$IIVWT,007,R,03.98,N,02.05,M,,*36
$IIHDT,,T*0C
$GPWCV,,N,,D*5F
$GPXTE,A,A,,R,N,D*06
$GPZDA,104716,,,,00,*4D
$IIDBT,036.58,f,011.15,M,006.02,F*29
$GPGLL,6009.081,N,02458.925,E,104716,A,D*44
$GPGSV,,,,,,,,,,,,,,,,,,,*79
$IIHDM,,M*0C
$IIHDT,,T*0C
$IIMWD,,,,,04.93,N,02.54,M*50
$IIVDR,,,,,,N*0E
$IIVHW,,T,,M,06.06,N,11.22,K*55
$IIVPW,5.99,N,,*04
$IIVTG,108.22,T,108.22,M,5.99,N,,,D*61
$IIMWV,001,R,10.49,N,A*2E
$IIVWT,002,R,04.33,N,02.23,M,,*31
$IIHDT,,T*0C
$GPWCV,,N,,D*5F
$GPXTE,A,A,,R,N,D*06
$GPZDA,104718,,,,00,*43
$IIDBT,036.71,f,011.19,M,006.04,F*28
$GPGLL,6009.080,N,02458.931,E,104718,A,D*4E
$GPGSV,,,,,,,,,,,,,,,,,,,*79
$IIHDM,,M*0C
$IIHDT,,T*0C
$IIMWD,,,,,04.68,N,02.41,M*50
$IIVDR,,,,,,N*0E
$IIVHW,,T,,M,06.10,N,11.29,K*59
$IIVPW,6.09,N,,*0E
$IIVTG,106.35,T,106.35,M,6.00,N,,,D*62
$IIMWV,007,T,04.66,N,A*26
$IIVWT,007,R,04.66,N,02.40,M,,*31
$IIHDT,,T*0C
$GPWCV,,N,,D*5F
$GPXTE,A,A,,R,N,D*06
$GPZDA,104720,,,,00,*48
$IIDBT,036.84,f,011.23,M,006.07,F*28
$GPGLL,6009.080,N,02458.938,E,104720,A,D*4C
$GPGSV,,,,,,,,,,,,,,,,,,,*79
$IIHDM,,M*0C
$IIHDT,,T*0C
$IIMWD,,,,,04.64,N,02.39,M*53
$IIVDR,,,,,,N*0E
$IIVHW,,T,,M,06.14,N,11.37,K*52
$IIVPW,6.23,N,,*06
$IIVTG,104.79,T,104.79,M,6.12,N,,,D*61
$IIMWV,001,R,10.88,N,A*23
$IIVWT,001,R,04.76,N,02.45,M,,*33
$IIHDT,,T*0C
$GPWCV,,N,,D*5F
$GPXTE,A,A,,R,N,D*06
$GPZDA,104722,,,,00,*4A
$IIDBT,036.71,f,011.19,M,006.04,F*28
$GPGLL,6009.079,N,02458.945,E,104722,A,D*42
$GPGSV,,,,,,,,,,,,,,,,,,,*79
$IIHDM,,M*0C
$IIHDT,,T*0C
$IIMWD,,,,,04.80,N,02.47,M*50
$IIVDR,,,,,,N*0E
$IIVHW,,T,,M,06.11,N,11.31,K*51
$IIVPW,5.98,N,,*05
$IIVTG,104.05,T,104.05,M,6.16,N,,,D*65
$IIMWV,010,T,05.15,N,A*25
$IIVWT,010,R,05.15,N,02.65,M,,*35
$IIHDT,,T*0C
$GPWCV,,N,,D*5F
$GPXTE,A,A,,R,N,D*06
$GPZDA,104724,,,,00,*4C
$IIDBT,037.76,f,011.51,M,006.22,F*26
$GPGLL,6009.078,N,02458.951,E,104724,A,D*40
$GPGSV,,,,,,,,,,,,,,,,,,,*79
$IIHDM,,M*0C
$IIHDT,,T*0C
$IIMWD,,,,,04.49,N,02.31,M*54
$IIVDR,,,,,,N*0E
$IIVHW,,T,,M,06.04,N,11.18,K*5E
$IIVPW,5.96,N,,*0B
$IIVTG,104.21,T,104.21,M,6.04,N,,,D*66
$IIMWV,356,R,11.07,N,A*24
$IIVWT,008,L,05.26,N,02.71,M,,*27
$IIHDT,,T*0C
$GPWCV,,N,,D*5F
$GPXTE,A,A,,R,N,D*06
$GPZDA,104726,,,,00,*4E
$IIDBT,037.26,f,011.36,M,006.14,F*27
$GPGLL,6009.077,N,02458.958,E,104727,A,D*45
$GPGSV,,,,,,,,,,,,,,,,,,,*79
$IIHDM,,M*0C
$IIHDT,,T*0C
$IIMWD,,,,,04.54,N,02.34,M*5D
$IIVDR,,,,,,N*0E
$IIVHW,,T,,M,06.01,N,11.13,K*50
$IIVPW,5.94,N,,*09
$IIVTG,105.10,T,105.10,M,6.01,N,,,D*63
$IIMWV,006,T,04.78,N,A*28
$IIVWT,006,R,04.78,N,02.46,M,,*39
$IIHDT,,T*0C
$GPWCV,,N,,D*5F
$GPXTE,A,A,,R,N,D*06
$GPZDA,104728,,,,00,*40
$IIDBT,037.17,f,011.33,M,006.12,F*26
$GPGLL,6009.076,N,02458.964,E,104729,A,D*45
$GPGSV,,,,,,,,,,,,,,,,,,,*79
$IIHDM,,M*0C
$IIHDT,,T*0C
$IIMWD,,,,,04.27,N,02.20,M*5C
$IIVDR,,,,,,N*0E
$IIVHW,,T,,M,06.07,N,11.24,K*52
$IIVPW,6.20,N,,*05
$IIVTG,104.15,T,104.15,M,5.93,N,,,D*6B
$IIMWV,360,R,10.49,N,A*2A
$IIVWT,000,L,04.47,N,02.30,M,,*2C
$IIHDT,,T*0C
$GPWCV,,N,,D*5F
$GPXTE,A,A,,R,N,D*06
$GPZDA,104730,,,,00,*49
$IIDBT,037.17,f,011.33,M,006.12,F*26
$GPGLL,6009.076,N,02458.971,E,104731,A,D*48
$GPGSV,,,,,,,,,,,,,,,,,,,*79
$IIHDM,,M*0C
$IIHDT,,T*0C
$IIMWD,,,,,04.47,N,02.30,M*5B
$IIVDR,,,,,,N*0E
$IIVHW,,T,,M,06.06,N,11.22,K*55
$IIVPW,5.90,N,,*0D
$IIVTG,103.36,T,103.36,M,5.98,N,,,D*60
$IIMWV,010,T,04.97,N,A*2E
$IIVWT,010,R,04.97,N,02.56,M,,*3E
$IIHDT,,T*0C
$GPWCV,,N,,D*5F
$GPXTE,A,A,,R,N,D*06
$GPZDA,104732,,,,00,*4B
$IIDBT,037.56,f,011.45,M,006.18,F*28
$GPGLL,6009.075,N,02458.977,E,104733,A,D*4F
$GPGSV,,,,,,,,,,,,,,,,,,,*79
$IIHDM,,M*0C
$IIHDT,,T*0C
$IIMWD,,,,,03.98,N,02.05,M*58
$IIVDR,,,,,,N*0E
$IIVHW,,T,,M,06.06,N,11.22,K*55
$IIVPW,5.97,N,,*0A
$IIVTG,102.64,T,102.64,M,6.02,N,,,D*60
$IIMWV,356,R,10.10,N,A*23
$IIVWT,011,L,04.17,N,02.15,M,,*2E
$IIHDT,,T*0C
$GPWCV,,N,,D*5F
$GPXTE,A,A,,R,N,D*06
$GPZDA,104734,,,,00,*4D
$IIDBT,037.72,f,011.50,M,006.21,F*20
$GPGLL,6009.074,N,02458.987,E,104735,A,D*47
$GPGSV,,,,,,,,,,,,,,,,,,,*79
$IIHDM,,M*0C
$IIHDT,,T*0C
$IIMWD,,,,,04.23,N,02.18,M*53
$IIVDR,,,,,,N*0E
$IIVHW,,T,,M,06.00,N,11.11,K*53
$IIVPW,5.76,N,,*05
$IIVTG,102.54,T,102.54,M,6.02,N,,,D*60
$IIMWV,016,T,04.31,N,A*24
$IIVWT,016,R,04.31,N,02.22,M,,*37
$IIHDT,,T*0C
$GPWCV,,N,,D*5F
$GPXTE,A,A,,R,N,D*06
$GPZDA,104736,,,,00,*4F
$IIDBT,037.82,f,011.53,M,006.23,F*2E
$GPGLL,6009.073,N,02458.993,E,104737,A,D*47
$GPGSV,,,,,,,,,,,,,,,,,,,*79
$IIHDM,,M*0C
$IIHDT,,T*0C
$IIMWD,,,,,03.63,N,01.87,M*55
$IIVDR,,,,,,N*0E
$IIVHW,,T,,M,05.98,N,11.07,K*56
$IIVPW,6.05,N,,*02
$IIVTG,104.24,T,104.24,M,5.95,N,,,D*6D
$IIMWV,356,R,09.71,N,A*2C
$IIVWT,011,L,03.67,N,01.89,M,,*28
$IIHDT,,T*0C
$GPWCV,,N,,D*5F
$GPXTE,A,A,,R,N,D*06
$GPZDA,104739,,,,00,*40
$IIDBT,038.31,f,011.68,M,006.31,F*22
$GPGLL,6009.072,N,02459.000,E,104739,A,D*4A
$GPGSV,,,,,,,,,,,,,,,,,,,*79
$IIHDM,,M*0C
$IIHDT,,T*0C
$IIMWD,,,,,03.94,N,02.03,M*52
$IIVDR,,,,,,N*0E
$IIVHW,,T,,M,06.04,N,11.18,K*5E
$IIVPW,6.15,N,,*03
$IIVTG,104.73,T,104.73,M,6.04,N,,,D*66
$IIMWV,009,T,04.80,N,A*20
$IIVWT,009,R,04.80,N,02.47,M,,*30
$IIHDT,,T*0C
$GPWCV,,N,,D*5F
$GPXTE,A,A,,R,N,D*06
$GPZDA,104741,,,,00,*4F
$IIDBT,038.45,f,011.72,M,006.33,F*28
$GPGLL,6009.071,N,02459.006,E,104741,A,D*40
$GPGSV,,,,,,,,,,,,,,,,,,,*79
$IIHDM,,M*0C
$IIHDT,,T*0C
$IIMWD,,,,,04.47,N,02.30,M*5B
$IIVDR,,,,,,N*0E
$IIVHW,,T,,M,06.10,N,11.29,K*59
$IIVPW,5.80,N,,*0C
$IIVTG,104.66,T,104.66,M,6.13,N,,,D*60
$IIMWV,008,R,10.88,N,A*2A
$IIVWT,018,R,04.87,N,02.51,M,,*30
$IIHDT,,T*0C
$GPWCV,,N,,D*5F
$GPXTE,A,A,,R,N,D*06
$GPZDA,104743,,,,00,*4D
$IIDBT,038.74,f,011.81,M,006.38,F*2D
$GPGLL,6009.070,N,02459.013,E,104743,A,D*47
$GPGSV,,,,,,,,,,,,,,,,,,,*79
$IIHDM,,M*0C
$IIHDT,,T*0C
$IIMWD,,,,,03.98,N,02.05,M*58
$IIVDR,,,,,,N*0E
$IIVHW,,T,,M,06.11,N,11.31,K*51
$IIVPW,6.06,N,,*01
$IIVTG,105.49,T,105.49,M,6.16,N,,,D*65
$IIMWV,349,T,04.39,N,A*25
$IIVWT,011,L,04.39,N,02.26,M,,*22
$IIHDT,,T*0C
$GPWCV,,N,,D*5F
$GPXTE,A,A,,R,N,D*06
$GPZDA,104745,,,,00,*4B
$IIDBT,039.56,f,012.06,M,006.51,F*2F
$GPGLL,6009.069,N,02459.020,E,104745,A,D*49
$GPGSV,,,,,,,,,,,,,,,,,,,*79
$IIHDM,,M*0C
$IIHDT,,T*0C
$IIMWD,,,,,04.14,N,02.13,M*5C
$IIVDR,,,,,,N*0E
$IIVHW,,T,,M,06.09,N,11.27,K*5F
$IIVPW,5.82,N,,*0E
$IIVTG,104.97,T,104.97,M,6.19,N,,,D*6A
$IIMWV,008,R,10.10,N,A*2B
$IIVWT,020,R,04.23,N,02.18,M,,*38
$IIHDT,,T*0C
$GPWCV,,N,,D*5F
$GPXTE,A,A,,R,N,D*06
$GPZDA,104747,,,,00,*49
$IIDBT,039.20,f,011.95,M,006.45,F*22
$GPGLL,6009.069,N,02459.026,E,104747,A,D*4D
$GPGSV,,,,,,,,,,,,,,,,,,,*79
$IIHDM,,M*0C
$IIHDT,,T*0C
$IIMWD,,,,,03.90,N,02.01,M*54
$IIVDR,,,,,,N*0E
$IIVHW,,T,,M,06.03,N,11.16,K*57
$IIVPW,5.78,N,,*0B
$IIVTG,103.14,T,103.14,M,6.15,N,,,D*66
$IIMWV,006,T,03.53,N,A*26
$IIVWT,006,R,03.53,N,01.82,M,,*3C
$IIHDT,,T*0C
$GPWCV,,N,,D*5F
$GPXTE,A,A,,R,N,D*06
$GPZDA,104749,,,,00,*47
$IIDBT,039.07,f,011.91,M,006.43,F*25
$GPGLL,6009.068,N,02459.033,E,104749,A,D*46
$GPGSV,,,,,,,,,,,,,,,,,,,*79
$IIHDM,,M*0C
$IIHDT,,T*0C
$IIMWD,,,,,03.55,N,01.83,M*54
$IIVDR,,,,,,N*0E
$IIVHW,,T,,M,06.10,N,11.29,K*59
$IIVPW,6.03,N,,*04
$IIVTG,102.63,T,102.63,M,6.04,N,,,D*66
$IIMWV,009,R,09.71,N,A*25
$IIVWT,025,R,03.53,N,01.82,M,,*3D
$IIHDT,,T*0C
$GPWCV,,N,,D*5F
$GPXTE,A,A,,R,N,D*06
$GPZDA,104751,,,,00,*4E
$IIDBT,039.56,f,012.06,M,006.51,F*2F
$GPGLL,6009.067,N,02459.040,E,104751,A,D*44
$GPGSV,,,,,,,,,,,,,,,,,,,*79
$IIHDM,,M*0C
$IIHDT,,T*0C
$IIMWD,,,,,03.84,N,01.98,M*52
$IIVDR,,,,,,N*0E
$IIVHW,,T,,M,06.19,N,11.46,K*59
$IIVPW,5.85,N,,*09
$IIVTG,102.04,T,102.04,M,6.06,N,,,D*64
$IIMWV,031,T,04.25,N,A*24
$IIVWT,031,R,04.25,N,02.19,M,,*3F
$IIHDT,,T*0C
$GPWCV,,N,,D*5F
$GPXTE,A,A,,R,N,D*06
$GPZDA,104753,,,,00,*4C
$IIDBT,039.36,f,012.00,M,006.48,F*27
$GPGLL,6009.067,N,02459.046,E,104753,A,D*40
$GPGSV,,,,,,,,,,,,,,,,,,,*79
$IIHDM,,M*0C
$IIHDT,,T*0C
$IIMWD,,,,,04.00,N,02.06,M*5D
$IIVDR,,,,,,N*0E
$IIVHW,,T,,M,06.19,N,11.46,K*59
$IIVPW,5.71,N,,*02
$IIVTG,099.51,T,099.51,M,6.14,N,,,D*67
$IIMWV,354,R,09.71,N,A*2E
$IIVWT,016,L,03.71,N,01.91,M,,*21
$IIHDT,,T*0C
$GPWCV,,N,,D*5F
$GPXTE,A,A,,R,N,D*06
$GPZDA,104755,,,,00,*4A
$IIDBT,039.86,f,012.15,M,006.56,F*27
$GPGLL,6009.067,N,02459.053,E,104755,A,D*42
$GPGSV,,,,,,,,,,,,,,,,,,,*79
$IIHDM,,M*0C
$IIHDT,,T*0C
$IIMWD,,,,,04.64,N,02.39,M*53
$IIVDR,,,,,,N*0E
$IIVHW,,T,,M,06.15,N,11.39,K*5D
$IIVPW,5.41,N,,*01
$IIVTG,094.25,T,094.25,M,6.06,N,,,D*64
$IIMWV,027,T,04.76,N,A*25
$IIVWT,027,R,04.76,N,02.45,M,,*37
$IIHDT,,T*0C
$GPWCV,,N,,D*5F
$GPXTE,A,A,,R,N,D*06
$GPZDA,104757,,,,00,*48
$IIDBT,039.86,f,012.15,M,006.56,F*27
$GPGLL,6009.066,N,02459.060,E,104757,A,D*41
$GPGSV,,,,,,,,,,,,,,,,,,,*79
$IIHDM,,M*0C
$IIHDT,,T*0C
$IIMWD,,,,,03.98,N,02.05,M*58
$IIVDR,,,,,,N*0E
$IIVHW,,T,,M,06.13,N,11.35,K*57
$IIVPW,6.02,N,,*05
$IIVTG,096.81,T,096.81,M,6.01,N,,,D*63
$IIMWV,360,R,10.49,N,A*2A
$IIVWT,001,L,04.47,N,02.30,M,,*2D
$IIHDT,,T*0C
$GPWCV,,N,,D*5F
$GPXTE,A,A,,R,N,D*06
$GPZDA,104759,,,,00,*46
$IIDBT,039.99,f,012.19,M,006.58,F*2B
$GPGLL,6009.066,N,02459.066,E,104759,A,D*49
$GPGSV,,,,,,,,,,,,,,,,,,,*79
$IIHDM,,M*0C
$IIHDT,,T*0C
$IIMWD,,,,,04.14,N,02.13,M*5C
$IIVDR,,,,,,N*0E
$IIVHW,,T,,M,06.07,N,11.24,K*52
$IIVPW,5.75,N,,*06
$IIVTG,102.20,T,102.20,M,5.95,N,,,D*6D
$IIMWV,025,T,04.72,N,A*23
$IIVWT,025,R,04.72,N,02.43,M,,*37
$IIHDT,,T*0C
$GPWCV,,N,,D*5F
$GPXTE,A,A,,R,N,D*06
$GPZDA,104801,,,,00,*44
$IIDBT,040.22,f,012.26,M,006.62,F*20
$GPGLL,6009.064,N,02459.072,E,104801,A,D*4C
$GPGSV,,,,,,,,,,,,,,,,,,,*79
$IIHDM,,M*0C
$IIHDT,,T*0C
$IIMWD,,,,,04.06,N,02.09,M*54
$IIVDR,,,,,,N*0E
$IIVHW,,T,,M,06.04,N,11.18,K*5E
$IIVPW,6.00,N,,*07
$IIVTG,107.52,T,107.52,M,5.91,N,,,D*69
$IIMWV,360,R,10.10,N,A*26
$IIVWT,002,L,04.00,N,02.06,M,,*28
$IIHDT,,T*0C
$GPWCV,,N,,D*5F
$GPXTE,A,A,,R,N,D*06
$GPZDA,104803,,,,00,*46
$IIDBT,040.02,f,012.20,M,006.59,F*2C
$GPGLL,6009.063,N,02459.079,E,104803,A,D*42
$GPGSV,,,,,,,,,,,,,,,,,,,*79
$IIHDM,,M*0C
$IIHDT,,T*0C
$IIMWD,,,,,04.25,N,02.19,M*54
$IIVDR,,,,,,N*0E
$IIVHW,,T,,M,06.08,N,11.26,K*5F
$IIVPW,5.90,N,,*0D
$IIVTG,107.63,T,107.63,M,5.95,N,,,D*6D
$IIMWV,017,T,04.06,N,A*21
$IIVWT,017,R,04.06,N,02.09,M,,*3B
$IIHDT,,T*0C
$GPWCV,,N,,D*5F
$GPXTE,A,A,,R,N,D*06
$GPZDA,104805,,,,00,*40
$IIDBT,040.68,f,012.40,M,006.70,F*2D
$GPGLL,6009.063,N,02459.085,E,104805,A,D*47
$GPGSV,,,,,,,,,,,,,,,,,,,*79
$IIHDM,,M*0C
$IIHDT,,T*0C
$IIMWD,,,,,04.08,N,02.10,M*52
$IIVDR,,,,,,N*0E
$IIVHW,,T,,M,06.09,N,11.27,K*5F
$IIVPW,6.01,N,,*06
$IIVTG,105.63,T,105.63,M,6.04,N,,,D*66
$IIMWV,003,R,10.49,N,A*2C
$IIVWT,007,R,04.64,N,02.39,M,,*3D
$IIHDT,,T*0C
$GPWCV,,N,,D*5F
$GPXTE,A,A,,R,N,D*06
$GPZDA,104807,,,,00,*42
$IIDBT,040.18,f,012.25,M,006.62,F*2A
$GPGLL,6009.062,N,02459.092,E,104808,A,D*4D
$GPGSV,,,,,,,,,,,,,,,,,,,*79
$IIHDM,,M*0C
$IIHDT,,T*0C
$IIMWD,,,,,04.33,N,02.23,M*5A
$IIVDR,,,,,,N*0E
$IIVHW,,T,,M,06.01,N,11.13,K*50
$IIVPW,5.76,N,,*05
$IIVTG,106.38,T,106.38,M,6.11,N,,,D*62
$IIMWV,005,T,04.17,N,A*22
$IIVWT,005,R,04.17,N,02.15,M,,*35
$IIHDT,,T*0C
$GPWCV,,N,,D*5F
$GPXTE,A,A,,R,N,D*06
$GPZDA,104809,,,,00,*4C
$IIDBT,040.68,f,012.40,M,006.70,F*2D
$GPGLL,6009.061,N,02459.099,E,104810,A,D*4C
$GPGSV,,,,,,,,,,,,,,,,,,,*79
$IIHDM,,M*0C
$IIHDT,,T*0C
$IIMWD,,,,,04.04,N,02.08,M*57
$IIVDR,,,,,,N*0E
$IIVHW,,T,,M,06.00,N,11.11,K*53
$IIVPW,5.75,N,,*06
$IIVTG,103.69,T,103.69,M,5.98,N,,,D*60
$IIMWV,002,R,09.71,N,A*2E
$IIVWT,006,R,03.51,N,01.81,M,,*3D
$IIHDT,,T*0C
$GPWCV,,N,,D*5F
$GPXTE,A,A,,R,N,D*06
$GPZDA,104811,,,,00,*45
$IIDBT,040.71,f,012.41,M,006.70,F*24
$GPGLL,6009.060,N,02459.105,E,104812,A,D*4B
$GPGSV,,,,,,,,,,,,,,,,,,,*79
$IIHDM,,M*0C
$IIHDT,,T*0C
$IIMWD,,,,,03.55,N,01.83,M*54
$IIVDR,,,,,,N*0E
$IIVHW,,T,,M,06.08,N,11.26,K*5F
$IIVPW,6.19,N,,*0F
$IIVTG,105.60,T,105.60,M,5.94,N,,,D*6C
$IIMWV,011,T,04.02,N,A*23
$IIVWT,011,R,04.02,N,02.07,M,,*37
$IIHDT,,T*0C
$GPWCV,,N,,D*5F
$GPXTE,A,A,,R,N,D*06
$GPZDA,104813,,,,00,*47
$IIDBT,040.81,f,012.44,M,006.72,F*2C
$GPGLL,6009.059,N,02459.112,E,104814,A,D*41
$GPGSV,,,,,,,,,,,,,,,,,,,*79
$IIHDM,,M*0C
$IIHDT,,T*0C
$IIMWD,,,,,03.65,N,01.88,M*5C
$IIVDR,,,,,,N*0E
$IIVHW,,T,,M,06.07,N,11.24,K*52
$IIVPW,5.98,N,,*05
$IIVTG,105.95,T,105.95,M,6.06,N,,,D*64
$IIMWV,003,R,10.10,N,A*20
$IIVWT,007,R,04.19,N,02.16,M,,*3A
$IIHDT,,T*0C
$GPWCV,,N,,D*5F
$GPXTE,A,A,,R,N,D*06
$GPZDA,104815,,,,00,*41
$IIDBT,040.25,f,012.27,M,006.63,F*27
$GPGLL,6009.058,N,02459.118,E,104816,A,D*48
$GPGSV,,,,,,,,,,,,,,,,,,,*79
$IIHDM,,M*0C
$IIHDT,,T*0C
$IIMWD,,,,,04.23,N,02.18,M*53
$IIVDR,,,,,,N*0E
$IIVHW,,T,,M,06.02,N,11.14,K*54
$IIVPW,5.84,N,,*08
$IIVTG,107.61,T,107.61,M,6.12,N,,,D*61
$IIMWV,354,T,03.96,N,A*2B
$IIVWT,006,L,03.96,N,02.04,M,,*26
$IIHDT,,T*0C
$GPWCV,,N,,D*5F
$GPXTE,A,A,,R,N,D*06
$GPZDA,104817,,,,00,*43
$IIDBT,040.51,f,012.35,M,006.67,F*23
$GPGLL,6009.057,N,02459.128,E,104818,A,D*4A
$GPGSV,,,,,,,,,,,,,,,,,,,*79
$IIHDM,,M*0C
$IIHDT,,T*0C
$IIMWD,,,,,04.19,N,02.16,M*54
$IIVDR,,,,,,N*0E
$IIVHW,,T,,M,06.01,N,11.13,K*50
$IIVPW,5.60,N,,*02
$IIVTG,106.68,T,106.68,M,6.05,N,,,D*67
$IIMWV,008,R,09.71,N,A*24
$IIVWT,022,R,03.73,N,01.92,M,,*39
$IIHDT,,T*0C
$GPWCV,,N,,D*5F
$GPXTE,A,A,,R,N,D*06
$GPZDA,104819,,,,00,*4D
$IIDBT,040.02,f,012.20,M,006.59,F*2C
$GPGLL,6009.055,N,02459.134,E,104820,A,D*4E
$GPGSV,,,,,,,,,,,,,,,,,,,*79
$IIHDM,,M*0C
$IIHDT,,T*0C
$IIMWD,,,,,03.53,N,01.82,M*53
$IIVDR,,,,,,N*0E
$IIVHW,,T,,M,06.03,N,11.16,K*57
$IIVPW,6.06,N,,*01
$IIVTG,108.52,T,108.52,M,6.04,N,,,D*66
$IIMWV,001,T,03.63,N,A*22
$IIVWT,001,R,03.63,N,01.87,M,,*3D
$IIHDT,,T*0C
$GPWCV,,N,,D*5F
$GPXTE,A,A,,R,N,D*06
$GPZDA,104822,,,,00,*45
$IIDBT,039.92,f,012.17,M,006.57,F*21
$GPGLL,6009.054,N,02459.140,E,104822,A,D*4E
$GPGSV,,,,,,,,,,,,,,,,,,,*79
$IIHDM,,M*0C
$IIHDT,,T*0C
$IIMWD,,,,,03.47,N,01.79,M*52
$IIVDR,,,,,,N*0E
$IIVHW,,T,,M,06.07,N,11.24,K*52
$IIVPW,6.16,N,,*00
$IIVTG,108.51,T,108.51,M,6.03,N,,,D*61
$IIMWV,004,R,09.71,N,A*28
$IIVWT,011,R,03.63,N,01.87,M,,*3C
$IIHDT,,T*0C
$GPWCV,,N,,D*5F
$GPXTE,A,A,,R,N,D*06
$GPZDA,104824,,,,00,*43
$IIDBT,039.56,f,012.06,M,006.51,F*2F
$GPGLL,6009.053,N,02459.147,E,104824,A,D*48
$GPGSV,,,,,,,,,,,,,,,,,,,*79
$IIHDM,,M*0C
$IIHDT,,T*0C
$IIMWD,,,,,03.47,N,01.79,M*52
$IIVDR,,,,,,N*0E
$IIVHW,,T,,M,06.10,N,11.29,K*59
$IIVPW,5.97,N,,*0A
$IIVTG,109.18,T,109.18,M,6.16,N,,,D*65
$IIMWV,356,T,03.65,N,A*25
$IIVWT,005,L,03.65,N,01.88,M,,*2E
$IIHDT,,T*0C
$GPWCV,,N,,D*5F
$GPXTE,A,A,,R,N,D*06
$GPZDA,104826,,,,00,*41
$IIDBT,039.00,f,011.89,M,006.42,F*2A
$GPGLL,6009.052,N,02459.153,E,104826,A,D*4E
$GPGSV,,,,,,,,,,,,,,,,,,,*79
$IIHDM,,M*0C
$IIHDT,,T*0C
$IIMWD,,,,,03.84,N,01.98,M*52
$IIVDR,,,,,,N*0E
$IIVHW,,T,,M,06.06,N,11.22,K*55
$IIVPW,5.68,N,,*0A
$IIVTG,109.55,T,109.55,M,6.14,N,,,D*67
$IIMWV,005,R,09.13,N,A*2D
$IIVWT,015,R,03.11,N,01.60,M,,*34
$IIHDT,,T*0C
$GPWCV,,N,,D*5F
$GPXTE,A,A,,R,N,D*06
$GPZDA,104828,,,,00,*4F
$IIDBT,038.74,f,011.81,M,006.38,F*2D
$GPGLL,6009.051,N,02459.160,E,104828,A,D*43
$GPGSV,,,,,,,,,,,,,,,,,,,*79
$IIHDM,,M*0C
$IIHDT,,T*0C
$IIMWD,,,,,03.65,N,01.88,M*5C
$IIVDR,,,,,,N*0E
$IIVHW,,T,,M,06.05,N,11.20,K*54
$IIVPW,6.06,N,,*01
$IIVTG,110.84,T,110.84,M,6.03,N,,,D*61
$IIMWV,354,T,02.93,N,A*2F
$IIVWT,006,L,02.93,N,01.51,M,,*21
$IIHDT,,T*0C
$GPWCV,,N,,D*5F
$GPXTE,A,A,,R,N,D*06
$GPZDA,104830,,,,00,*46
$IIDBT,038.61,f,011.77,M,006.36,F*2E
$GPGLL,6009.050,N,02459.166,E,104830,A,D*4D
$GPGSV,,,,,,,,,,,,,,,,,,,*79
$IIHDM,,M*0C
$IIHDT,,T*0C
$IIMWD,,,,,03.16,N,01.63,M*5D
$IIVDR,,,,,,N*0E
$IIVHW,,T,,M,06.13,N,11.35,K*57
$IIVPW,6.32,N,,*06
$IIVTG,110.46,T,110.46,M,6.01,N,,,D*63
$IIMWV,001,R,10.10,N,A*22
$IIVWT,003,R,03.86,N,01.99,M,,*3B
$IIHDT,,T*0C
$GPWCV,,N,,D*5F
$GPXTE,A,A,,R,N,D*06
$GPZDA,104832,,,,00,*44
$IIDBT,038.54,f,011.75,M,006.35,F*29
$GPGLL,6009.049,N,02459.173,E,104832,A,D*43
$GPGSV,,,,,,,,,,,,,,,,,,,*79
$IIHDM,,M*0C
$IIHDT,,T*0C
$IIMWD,,,,,03.69,N,01.90,M*59
$IIVDR,,,,,,N*0E
$IIVHW,,T,,M,06.15,N,11.39,K*5D
$IIVPW,5.93,N,,*0E
$IIVTG,109.89,T,109.89,M,6.13,N,,,D*60
$IIMWV,009,T,03.51,N,A*2B
$IIVWT,009,R,03.51,N,01.81,M,,*32
$IIHDT,,T*0C
$GPWCV,,N,,D*5F
$GPXTE,A,A,,R,N,D*06
$GPZDA,104834,,,,00,*42
$IIDBT,038.74,f,011.81,M,006.38,F*2D
$GPGLL,6009.047,N,02459.179,E,104834,A,D*41
$GPGSV,,,,,,,,,,,,,,,,,,,*79
$IIHDM,,M*0C
$IIHDT,,T*0C
$IIMWD,,,,,03.18,N,01.64,M*54
$IIVDR,,,,,,N*0E
$IIVHW,,T,,M,06.17,N,11.42,K*53
$IIVPW,6.32,N,,*06
$IIVTG,110.00,T,110.00,M,6.08,N,,,D*6A
$IIMWV,000,R,09.52,N,A*2D
$IIVWT,000,R,03.20,N,01.65,M,,*37
$IIHDT,,T*0C
$GPWCV,,N,,D*5F
$GPXTE,A,A,,R,N,D*06
$GPZDA,104836,,,,00,*40
$IIDBT,038.68,f,011.79,M,006.37,F*28
$GPGLL,6009.046,N,02459.185,E,104836,A,D*41
$GPGSV,,,,,,,,,,,,,,,,,,,*79
$IIHDM,,M*0C
$IIHDT,,T*0C
$IIMWD,,,,,03.55,N,01.83,M*54
$IIVDR,,,,,,N*0E
$IIVHW,,T,,M,06.19,N,11.46,K*59
$IIVPW,5.83,N,,*0F
$IIVTG,109.40,T,109.40,M,6.10,N,,,D*63
$IIMWV,004,T,03.44,N,A*22
$IIVWT,004,R,03.44,N,01.77,M,,*32
$IIHDT,,T*0C
$GPWCV,,N,,D*5F
$GPXTE,A,A,,R,N,D*06
$GPZDA,104838,,,,00,*4E
$IIDBT,038.54,f,011.75,M,006.35,F*29
$GPGLL,6009.045,N,02459.192,E,104838,A,D*4A
$GPGSV,,,,,,,,,,,,,,,,,,,*79
$IIHDM,,M*0C
$IIHDT,,T*0C
$IIMWD,,,,,03.14,N,01.62,M*5E
$IIVDR,,,,,,N*0E
$IIVHW,,T,,M,06.11,N,11.31,K*51
$IIVPW,5.93,N,,*0E
$IIVTG,110.50,T,110.50,M,6.10,N,,,D*63
$IIMWV,005,R,09.52,N,A*28
$IIVWT,013,R,03.55,N,01.83,M,,*3F
$IIHDT,,T*0C
$GPWCV,,N,,D*5F
$GPXTE,A,A,,R,N,D*06
$GPZDA,104840,,,,00,*41
$IIDBT,038.71,f,011.80,M,006.37,F*26
$GPGLL,6009.044,N,02459.198,E,104840,A,D*4E
$GPGSV,,,,,,,,,,,,,,,,,,,*79
$IIHDM,,M*0C
$IIHDT,,T*0C
$IIMWD,,,,,03.07,N,01.58,M*55
$IIVDR,,,,,,N*0E
$IIVHW,,T,,M,06.10,N,11.29,K*59
$IIVPW,5.68,N,,*0A
$IIVTG,109.28,T,109.28,M,6.05,N,,,D*67
$IIMWV,344,T,03.53,N,A*23
$IIVWT,017,L,03.53,N,01.82,M,,*22
$IIHDT,,T*0C
$GPWCV,,N,,D*5F
$GPXTE,A,A,,R,N,D*06
$GPZDA,104842,,,,00,*43
$IIDBT,038.38,f,011.70,M,006.32,F*21
$GPGLL,6009.043,N,02459.204,E,104842,A,D*4D
$GPGSV,,,,,,,,,,,,,,,,,,,*79
$IIHDM,,M*0C
$IIHDT,,T*0C
$IIMWD,,,,,04.02,N,02.07,M*5E
$IIVDR,,,,,,N*0E
$IIVHW,,T,,M,06.08,N,11.26,K*5F
$IIVPW,4.65,N,,*06
$IIVTG,107.84,T,107.84,M,5.84,N,,,D*6D
$IIMWV,008,R,08.74,N,A*20
$IIVWT,027,R,02.70,N,01.39,M,,*3F
$IIHDT,,T*0C
$GPWCV,,N,,D*5F
$GPXTE,A,A,,R,N,D*06
$GPZDA,104844,,,,00,*45
$IIDBT,038.38,f,011.70,M,006.32,F*21
$GPGLL,6009.042,N,02459.210,E,104844,A,D*4F
$GPGSV,,,,,,,,,,,,,,,,,,,*79
$IIHDM,,M*0C
$IIHDT,,T*0C
$IIMWD,,,,,03.12,N,01.61,M*5B
$IIVDR,,,,,,N*0E
$IIVHW,,T,,M,06.12,N,11.33,K*50
$IIVPW,6.14,N,,*02
$IIVTG,110.51,T,110.51,M,5.86,N,,,D*6F
$IIMWV,357,T,03.51,N,A*23
$IIVWT,003,L,03.51,N,01.81,M,,*26
$IIHDT,,T*0C
$GPWCV,,N,,D*5F
$GPXTE,A,A,,R,N,D*06
$GPZDA,104846,,,,00,*47
$IIDBT,038.81,f,011.83,M,006.39,F*24
$GPGLL,6009.041,N,02459.216,E,104846,A,D*48
$GPGSV,,,,,,,,,,,,,,,,,,,*79
$IIHDM,,M*0C
$IIHDT,,T*0C
$IIMWD,,,,,03.80,N,01.96,M*58
$IIVDR,,,,,,N*0E
$IIVHW,,T,,M,06.11,N,11.31,K*51
$IIVPW,5.52,N,,*03
$IIVTG,110.80,T,110.80,M,5.91,N,,,D*69
$IIMWV,002,R,09.13,N,A*2A
$IIVWT,005,R,02.93,N,01.51,M,,*3C
$IIHDT,,T*0C
$GPWCV,,N,,D*5F
$GPXTE,A,A,,R,N,D*06
$GPZDA,104848,,,,00,*49
$IIDBT,038.38,f,011.70,M,006.32,F*21
$GPGLL,6009.039,N,02459.223,E,104848,A,D*4F
$GPGSV,,,,,,,,,,,,,,,,,,,*79
$IIHDM,,M*0C
$IIHDT,,T*0C
$IIMWD,,,,,02.95,N,01.52,M*55
$IIVDR,,,,,,N*0E
$IIVHW,,T,,M,06.14,N,11.37,K*52
$IIVPW,6.15,N,,*03
$IIVTG,112.03,T,112.03,M,5.98,N,,,D*60
$IIMWV,356,T,02.85,N,A*2A
$IIVWT,004,L,02.85,N,01.47,M,,*23
$IIHDT,,T*0C
$GPWCV,,N,,D*5F
$GPXTE,A,A,,R,N,D*06
$GPZDA,104850,,,,00,*40
$IIDBT,038.08,f,011.61,M,006.27,F*26
$GPGLL,6009.038,N,02459.229,E,104851,A,D*4C
$GPGSV,,,,,,,,,,,,,,,,,,,*79
$IIHDM,,M*0C
$IIHDT,,T*0C
$IIMWD,,,,,02.72,N,01.40,M*5F
$IIVDR,,,,,,N*0E
$IIVHW,,T,,M,06.17,N,11.42,K*53
$IIVPW,5.94,N,,*09
$IIVTG,109.63,T,109.63,M,5.97,N,,,D*6F
$IIMWV,003,R,09.13,N,A*2B
$IIVWT,008,R,03.09,N,01.59,M,,*3B
$IIHDT,,T*0C
$GPWCV,,N,,D*5F
$GPXTE,A,A,,R,N,D*06
$GPZDA,104852,,,,00,*42
$IIDBT,038.35,f,011.69,M,006.31,F*27
$GPGLL,6009.037,N,02459.235,E,104853,A,D*4C
$GPGSV,,,,,,,,,,,,,,,,,,,*79
$IIHDM,,M*0C
$IIHDT,,T*0C
$IIMWD,,,,,02.72,N,01.40,M*5F
$IIVDR,,,,,,N*0E
$IIVHW,,T,,M,06.13,N,11.35,K*57
$IIVPW,5.94,N,,*09
$IIVTG,109.01,T,109.01,M,5.94,N,,,D*6C
$IIMWV,010,T,03.09,N,A*2E
$IIVWT,010,R,03.09,N,01.59,M,,*32
$IIHDT,,T*0C
$GPWCV,,N,,D*5F
$GPXTE,A,A,,R,N,D*06
$GPZDA,104854,,,,00,*44
$IIDBT,037.99,f,011.58,M,006.25,F*29
$GPGLL,6009.036,N,02459.242,E,104855,A,D*4B
$GPGSV,,,,,,,,,,,,,,,,,,,*79
$IIHDM,,M*0C
$IIHDT,,T*0C
$IIMWD,,,,,02.79,N,01.44,M*50
$IIVDR,,,,,,N*0E
$IIVHW,,T,,M,06.11,N,11.31,K*51
$IIVPW,5.62,N,,*00
$IIVTG,108.53,T,108.53,M,5.86,N,,,D*6F
$IIMWV,007,R,08.74,N,A*2F
$IIVWT,023,R,02.58,N,01.33,M,,*3B
$IIHDT,,T*0C
$GPWCV,,N,,D*5F
$GPXTE,A,A,,R,N,D*06
$GPZDA,104856,,,,00,*46
$IIDBT,037.92,f,011.56,M,006.24,F*2D
$GPGLL,6009.035,N,02459.248,E,104857,A,D*40
$GPGSV,,,,,,,,,,,,,,,,,,,*79
$IIHDM,,M*0C
$IIHDT,,T*0C
$IIMWD,,,,,02.62,N,01.35,M*5C
$IIVDR,,,,,,N*0E
$IIVHW,,T,,M,06.14,N,11.37,K*52
$IIVPW,6.09,N,,*0E
$IIVTG,108.31,T,108.31,M,5.87,N,,,D*6E
$IIMWV,005,T,03.12,N,A*20
$IIVWT,005,R,03.12,N,01.61,M,,*37
$IIHDT,,T*0C
$GPWCV,,N,,D*5F
$GPXTE,A,A,,R,N,D*06
$GPZDA,104858,,,,00,*48
$IIDBT,038.15,f,011.63,M,006.28,F*27
$GPGLL,6009.034,N,02459.254,E,104859,A,D*42
$GPGSV,,,,,,,,,,,,,,,,,,,*79
$IIHDM,,M*0C
$IIHDT,,T*0C
$IIMWD,,,,,03.26,N,01.68,M*55
$IIVDR,,,,,,N*0E
$IIVHW,,T,,M,06.07,N,11.24,K*52
$IIVPW,5.68,N,,*0A
$IIVTG,107.55,T,107.55,M,5.89,N,,,D*60
$IIMWV,006,R,09.13,N,A*2E
$IIVWT,017,R,03.12,N,01.61,M,,*34
$IIHDT,,T*0C
$GPWCV,,N,,D*5F
$GPXTE,A,A,,R,N,D*06
$GPZDA,104900,,,,00,*44
$IIDBT,038.08,f,011.61,M,006.27,F*26
$GPGLL,6009.033,N,02459.263,E,104901,A,D*4D
$GPGSV,,,,,,,,,,,,,,,,,,,*79
$IIHDM,,M*0C
$IIHDT,,T*0C
$IIMWD,,,,,03.47,N,01.79,M*52
$IIVDR,,,,,,N*0E
$IIVHW,,T,,M,06.07,N,11.24,K*52
$IIVPW,5.85,N,,*09
$IIVTG,109.88,T,109.88,M,5.89,N,,,D*60
$IIMWV,006,T,02.62,N,A*25
$IIVWT,006,R,02.62,N,01.35,M,,*33
$IIHDT,,T*0C
$GPWCV,,N,,D*5F
$GPXTE,A,A,,R,N,D*06
$GPZDA,104902,,,,00,*46
$IIDBT,038.15,f,011.63,M,006.28,F*27
$GPGLL,6009.031,N,02459.269,E,104903,A,D*47
$GPGSV,,,,,,,,,,,,,,,,,,,*79
$IIHDM,,M*0C
$IIHDT,,T*0C
$IIMWD,,,,,03.09,N,01.59,M*5A
$IIVDR,,,,,,N*0E
$IIVHW,,T,,M,06.06,N,11.22,K*55
$IIVPW,5.98,N,,*05
$IIVTG,113.42,T,113.42,M,5.92,N,,,D*6A
$IIMWV,357,R,09.13,N,A*29
$IIVWT,009,L,03.24,N,01.67,M,,*26
$IIHDT,,T*0C
$GPWCV,,N,,D*5F
$GPXTE,A,A,,R,N,D*06
$GPZDA,104905,,,,00,*41
$IIDBT,038.81,f,011.83,M,006.39,F*24
$GPGLL,6009.030,N,02459.276,E,104905,A,D*4E
$GPGSV,,,,,,,,,,,,,,,,,,,*79
$IIHDM,,M*0C
$IIHDT,,T*0C
$IIMWD,,,,,03.49,N,01.80,M*5A
$IIVDR,,,,,,N*0E
$IIVHW,,T,,M,06.06,N,11.22,K*55
$IIVPW,5.50,N,,*01
$IIVTG,113.03,T,113.03,M,5.93,N,,,D*6B
$IIMWV,013,T,02.97,N,A*2B
$IIVWT,013,R,02.97,N,01.53,M,,*3D
$IIHDT,,T*0C
$GPWCV,,N,,D*5F
$GPXTE,A,A,,R,N,D*06
$GPZDA,104907,,,,00,*43
$IIDBT,038.51,f,011.74,M,006.34,F*2C
$GPGLL,6009.029,N,02459.281,E,104907,A,D*4C
$GPGSV,,,,,,,,,,,,,,,,,,,*79
$IIHDM,,M*0C
$IIHDT,,T*0C
$IIMWD,,,,,03.09,N,01.59,M*5A
$IIVDR,,,,,,N*0E
$IIVHW,,T,,M,06.09,N,11.27,K*5F
$IIVPW,5.83,N,,*0F
$IIVTG,114.53,T,114.53,M,5.91,N,,,D*69
$IIMWV,354,R,09.13,N,A*2A
$IIVWT,018,L,03.16,N,01.63,M,,*23
$IIHDT,,T*0C
$GPWCV,,N,,D*5F
$GPXTE,A,A,,R,N,D*06
$GPZDA,104909,,,,00,*4D
$IIDBT,038.18,f,011.64,M,006.29,F*2C
$GPGLL,6009.027,N,02459.287,E,104909,A,D*4A
$GPGSV,,,,,,,,,,,,,,,,,,,*79
$IIHDM,,M*0C
$IIHDT,,T*0C
$IIMWD,,,,,03.05,N,01.57,M*58
$IIVDR,,,,,,N*0E
$IIVHW,,T,,M,06.10,N,11.29,K*59
$IIVPW,5.66,N,,*04
$IIVTG,114.43,T,114.43,M,5.90,N,,,D*68
$IIMWV,025,T,03.22,N,A*21
$IIVWT,025,R,03.22,N,01.66,M,,*31
$IIHDT,,T*0C
$GPWCV,,N,,D*5F
$GPXTE,A,A,,R,N,D*06
$GPZDA,104911,,,,00,*44
$IIDBT,038.38,f,011.70,M,006.32,F*21
$GPGLL,6009.026,N,02459.294,E,104911,A,D*40
$GPGSV,,,,,,,,,,,,,,,,,,,*79
$IIHDM,,M*0C
$IIHDT,,T*0C
$IIMWD,,,,,02.95,N,01.52,M*55
$IIVDR,,,,,,N*0E
$IIVHW,,T,,M,06.10,N,11.29,K*59
$IIVPW,5.89,N,,*05
$IIVTG,115.23,T,115.23,M,5.98,N,,,D*60
$IIMWV,352,R,09.52,N,A*29
$IIVWT,023,L,03.59,N,01.85,M,,*28
$IIHDT,,T*0C
$GPWCV,,N,,D*5F
$GPXTE,A,A,,R,N,D*06
$GPZDA,104913,,,,00,*46
$IIDBT,038.58,f,011.76,M,006.35,F*26
$GPGLL,6009.024,N,02459.300,E,104913,A,D*4C
$GPGSV,,,,,,,,,,,,,,,,,,,*79
$IIHDM,,M*0C
$IIHDT,,T*0C
$IIMWD,,,,,03.09,N,01.59,M*5A
$IIVDR,,,,,,N*0E
$IIVHW,,T,,M,06.11,N,11.31,K*51
$IIVPW,6.02,N,,*05
$IIVTG,115.51,T,115.51,M,6.02,N,,,D*60
$IIMWV,000,T,02.97,N,A*29
$IIVWT,000,R,02.97,N,01.53,M,,*3F
$IIHDT,,T*0C
$GPWCV,,N,,D*5F
$GPXTE,A,A,,R,N,D*06
$GPZDA,104915,,,,00,*40
$IIDBT,038.54,f,011.75,M,006.35,F*29
$GPGLL,6009.023,N,02459.306,E,104915,A,D*4B
$GPGSV,,,,,,,,,,,,,,,,,,,*79
$IIHDM,,M*0C
$IIHDT,,T*0C
$IIMWD,,,,,02.87,N,01.48,M*5D
$IIVDR,,,,,,N*0E
$IIVHW,,T,,M,06.11,N,11.31,K*51
$IIVPW,6.14,N,,*02
$IIVTG,114.73,T,114.73,M,5.95,N,,,D*6D
$IIMWV,000,R,09.13,N,A*28
$IIVWT,001,R,03.03,N,01.56,M,,*37
$IIHDT,,T*0C
$GPWCV,,N,,D*5F
$GPXTE,A,A,,R,N,D*06
$GPZDA,104917,,,,00,*42
$IIDBT,038.71,f,011.80,M,006.37,F*26
$GPGLL,6009.022,N,02459.311,E,104917,A,D*4E
$GPGSV,,,,,,,,,,,,,,,,,,,*79
$IIHDM,,M*0C
$IIHDT,,T*0C
$IIMWD,,,,,03.40,N,01.75,M*59
$IIVDR,,,,,,N*0E
$IIVHW,,T,,M,06.13,N,11.35,K*57
$IIVPW,6.06,N,,*01
$IIVTG,115.60,T,115.60,M,5.86,N,,,D*6F
$IIMWV,349,T,02.56,N,A*2A
$IIVWT,011,L,02.56,N,01.32,M,,*2B
$IIHDT,,T*0C
$GPWCV,,N,,D*5F
$GPXTE,A,A,,R,N,D*06
$GPZDA,104919,,,,00,*4C
$IIDBT,039.04,f,011.90,M,006.43,F*27
$GPGLL,6009.020,N,02459.317,E,104919,A,D*44
$GPGSV,,,,,,,,,,,,,,,,,,,*79
$IIHDM,,M*0C
$IIHDT,,T*0C
$IIMWD,,,,,03.16,N,01.63,M*5D
$IIVDR,,,,,,N*0E
$IIVHW,,T,,M,06.18,N,11.44,K*5A
$IIVPW,6.20,N,,*05
$IIVTG,116.20,T,116.20,M,5.94,N,,,D*6C
$IIMWV,359,R,09.13,N,A*27
$IIVWT,004,L,02.91,N,01.50,M,,*20
$IIHDT,,T*0C
$GPWCV,,N,,D*5F
$GPXTE,A,A,,R,N,D*06
$GPZDA,104921,,,,00,*47
$IIDBT,039.43,f,012.02,M,006.49,F*26
$GPGLL,6009.019,N,02459.323,E,104921,A,D*42
$GPGSV,,,,,,,,,,,,,,,,,,,*79
$IIHDM,,M*0C
$IIHDT,,T*0C
$IIMWD,,,,,03.11,N,01.60,M*59
$IIVDR,,,,,,N*0E
$IIVHW,,T,,M,06.12,N,11.33,K*50
$IIVPW,5.94,N,,*09
$IIVTG,115.30,T,115.30,M,5.91,N,,,D*69
$IIMWV,334,T,03.28,N,A*28
$IIVWT,026,L,03.28,N,01.69,M,,*29
$IIHDT,,T*0C
$GPWCV,,N,,D*5F
$GPXTE,A,A,,R,N,D*06
$GPZDA,104923,,,,00,*45
$IIDBT,038.74,f,011.81,M,006.38,F*2D
$GPGLL,6009.017,N,02459.329,E,104923,A,D*44
$GPGSV,,,,,,,,,,,,,,,,,,,*79
$IIHDM,,M*0C
$IIHDT,,T*0C
$IIMWD,,,,,03.65,N,01.88,M*5C
$IIVDR,,,,,,N*0E
$IIVHW,,T,,M,06.08,N,11.26,K*5F
$IIVPW,5.71,N,,*02
$IIVTG,116.53,T,116.53,M,5.75,N,,,D*63
$IIMWV,003,R,09.13,N,A*2B
$IIVWT,009,R,02.93,N,01.51,M,,*30
$IIHDT,,T*0C
$GPWCV,,N,,D*5F
$GPXTE,A,A,,R,N,D*06
$GPZDA,104925,,,,00,*43
$IIDBT,038.97,f,011.88,M,006.42,F*24
$GPGLL,6009.015,N,02459.334,E,104925,A,D*4C
$GPGSV,,,,,,,,,,,,,,,,,,,*79
$IIHDM,,M*0C
$IIHDT,,T*0C
$IIMWD,,,,,02.91,N,01.50,M*53
$IIVDR,,,,,,N*0E
$IIVHW,,T,,M,06.11,N,11.31,K*51
$IIVPW,6.02,N,,*05
$IIVTG,128.28,T,128.28,M,5.94,N,,,D*6C
$IIMWV,345,T,02.95,N,A*29
$IIVWT,015,L,02.95,N,01.52,M,,*26
$IIHDT,,T*0C
$GPWCV,,N,,D*5F
$GPXTE,A,A,,R,N,D*06
$GPZDA,104927,,,,00,*41
$IIDBT,039.23,f,011.96,M,006.46,F*21
$GPGLL,6009.013,N,02459.339,E,104927,A,D*45
$GPGSV,,,,,,,,,,,,,,,,,,,*79
$IIHDM,,M*0C
$IIHDT,,T*0C
$IIMWD,,,,,03.61,N,01.86,M*56
$IIVDR,,,,,,N*0E
$IIVHW,,T,,M,06.13,N,11.35,K*57
$IIVPW,6.04,N,,*03
$IIVTG,125.49,T,125.49,M,6.06,N,,,D*64
$IIMWV,004,R,09.52,N,A*29
$IIVWT,011,R,03.36,N,01.73,M,,*37
$IIHDT,,T*0C
$GPWCV,,N,,D*5F
$GPXTE,A,A,,R,N,D*06
$GPZDA,104929,,,,00,*4F
$IIDBT,039.30,f,011.98,M,006.47,F*2C
$GPGLL,6009.012,N,02459.345,E,104929,A,D*41
$GPGSV,,,,,,,,,,,,,,,,,,,*79
$IIHDM,,M*0C
$IIHDT,,T*0C
$IIMWD,,,,,03.36,N,01.73,M*5E
$IIVDR,,,,,,N*0E
$IIVHW,,T,,M,06.11,N,11.31,K*51
$IIVPW,5.81,N,,*0D
$IIVTG,119.35,T,119.35,M,5.96,N,,,D*6E
$IIMWV,358,T,03.05,N,A*2D
$IIVWT,002,L,03.05,N,01.57,M,,*2D
$IIHDT,,T*0C
$GPWCV,,N,,D*5F
$GPXTE,A,A,,R,N,D*06
$GPZDA,104931,,,,00,*46
$IIDBT,039.27,f,011.97,M,006.47,F*25
$GPGLL,6009.010,N,02459.351,E,104931,A,D*4F
$GPGSV,,,,,,,,,,,,,,,,,,,*79
$IIHDM,,M*0C
$IIHDT,,T*0C
$IIMWD,,,,,03.07,N,01.58,M*55
$IIVDR,,,,,,N*0E
$IIVHW,,T,,M,06.07,N,11.24,K*52
$IIVPW,6.02,N,,*05
$IIVTG,122.91,T,122.91,M,5.89,N,,,D*60
$IIMWV,359,R,09.71,N,A*23
$IIVWT,003,L,03.67,N,01.89,M,,*2B
$IIHDT,,T*0C
$GPWCV,,N,,D*5F
$GPXTE,A,A,,R,N,D*06
$GPZDA,104933,,,,00,*44
$IIDBT,039.89,f,012.16,M,006.57,F*2A
$GPGLL,6009.008,N,02459.356,E,104934,A,D*44
$GPGSV,,,,,,,,,,,,,,,,,,,*79
$IIHDM,,M*0C
$IIHDT,,T*0C
$IIMWD,,,,,03.47,N,01.79,M*52
$IIVDR,,,,,,N*0E
$IIVHW,,T,,M,06.08,N,11.26,K*5F
$IIVPW,5.85,N,,*09
$IIVTG,122.25,T,122.25,M,5.82,N,,,D*6B
$IIMWV,001,T,03.22,N,A*27
$IIVWT,001,R,03.22,N,01.66,M,,*37
$IIHDT,,T*0C
$GPWCV,,N,,D*5F
$GPXTE,A,A,,R,N,D*06
$GPZDA,104935,,,,00,*42
$IIDBT,040.12,f,012.23,M,006.61,F*25
$GPGLL,6009.007,N,02459.362,E,104936,A,D*4E
$GPGSV,,,,,,,,,,,,,,,,,,,*79
$IIHDM,,M*0C
$IIHDT,,T*0C
$IIMWD,,,,,03.24,N,01.67,M*58
$IIVDR,,,,,,N*0E
$IIVHW,,T,,M,06.15,N,11.39,K*5D
$IIVPW,6.25,N,,*00
$IIVTG,120.37,T,120.37,M,5.93,N,,,D*6B
$IIMWV,359,R,10.10,N,A*2C
$IIVWT,003,L,03.98,N,02.05,M,,*2C
$IIHDT,,T*0C
$GPWCV,,N,,D*5F
$GPXTE,A,A,,R,N,D*06
$GPZDA,104937,,,,00,*40
$IIDBT,039.59,f,012.07,M,006.52,F*22
$GPGLL,6009.005,N,02459.368,E,104938,A,D*48
$GPGSV,,,,,,,,,,,,,,,,,,,*79
$IIHDM,,M*0C
$IIHDT,,T*0C
$IIMWD,,,,,03.73,N,01.92,M*50
$IIVDR,,,,,,N*0E
$IIVHW,,T,,M,06.14,N,11.37,K*52
$IIVPW,5.75,N,,*06
$IIVTG,118.24,T,118.24,M,5.98,N,,,D*60
$IIMWV,011,T,03.67,N,A*27
$IIVWT,011,R,03.67,N,01.89,M,,*36
$IIHDT,,T*0C
$GPWCV,,N,,D*5F
$GPXTE,A,A,,R,N,D*06
$GPZDA,104939,,,,00,*4E
$IIDBT,039.76,f,012.12,M,006.55,F*2C
$GPGLL,6009.004,N,02459.374,E,104940,A,D*4B
$GPGSV,,,,,,,,,,,,,,,,,,,*79
$IIHDM,,M*0C
$IIHDT,,T*0C
$IIMWD,,,,,03.30,N,01.70,M*5B
$IIVDR,,,,,,N*0E
$IIVHW,,T,,M,06.08,N,11.26,K*5F
$IIVPW,5.81,N,,*0D
$IIVTG,116.56,T,116.56,M,6.00,N,,,D*62
$IIMWV,360,R,09.13,N,A*2D
$IIVWT,001,L,03.18,N,01.64,M,,*22
$IIHDT,,T*0C
$GPWCV,,N,,D*5F
$GPXTE,A,A,,R,N,D*06
$GPZDA,104941,,,,00,*41
$IIDBT,039.95,f,012.18,M,006.58,F*26
$GPGLL,6009.002,N,02459.380,E,104942,A,D*44
$GPGSV,,,,,,,,,,,,,,,,,,,*79
$IIHDM,,M*0C
$IIHDT,,T*0C
$IIMWD,,,,,03.69,N,01.90,M*59
$IIVDR,,,,,,N*0E
$IIVHW,,T,,M,06.04,N,11.18,K*5E
$IIVPW,5.97,N,,*0A
$IIVTG,114.84,T,114.84,M,5.87,N,,,D*6E
$IIMWV,356,T,03.49,N,A*2B
$IIVWT,004,L,03.49,N,01.80,M,,*29
$IIHDT,,T*0C
$GPWCV,,N,,D*5F
$GPXTE,A,A,,R,N,D*06
$GPZDA,104943,,,,00,*43
$IIDBT,040.02,f,012.20,M,006.59,F*2C
$GPGLL,6009.000,N,02459.389,E,104944,A,D*49
$GPGSV,,,,,,,,,,,,,,,,,,,*79
$IIHDM,,M*0C
$IIHDT,,T*0C
$IIMWD,,,,,03.38,N,01.74,M*57
$IIVDR,,,,,,N*0E
$IIVHW,,T,,M,06.06,N,11.22,K*55
$IIVPW,6.05,N,,*02
$IIVTG,116.24,T,116.24,M,5.97,N,,,D*6F
$IIMWV,359,R,09.13,N,A*27
$IIVWT,004,L,03.01,N,01.55,M,,*2D
$IIHDT,,T*0C
$GPWCV,,N,,D*5F
$GPXTE,A,A,,R,N,D*06
$GPZDA,104945,,,,00,*45
$IIDBT,039.92,f,012.17,M,006.57,F*21
$GPGLL,6008.999,N,02459.395,E,104946,A,D*4E
$GPGSV,,,,,,,,,,,,,,,,,,,*79
$IIHDM,,M*0C
$IIHDT,,T*0C
$IIMWD,,,,,03.05,N,01.57,M*58
$IIVDR,,,,,,N*0E
$IIVHW,,T,,M,06.06,N,11.22,K*55
$IIVPW,5.95,N,,*08
$IIVTG,112.76,T,112.76,M,5.92,N,,,D*6A
$IIMWV,016,T,03.16,N,A*26
$IIVWT,016,R,03.16,N,01.63,M,,*33
$IIHDT,,T*0C
$GPWCV,,N,,D*5F
$GPXTE,A,A,,R,N,D*06
$GPZDA,104948,,,,00,*48
$IIDBT,040.41,f,012.32,M,006.65,F*27
$GPGLL,6008.998,N,02459.401,E,104948,A,D*4B
$GPGSV,,,,,,,,,,,,,,,,,,,*79
$IIHDM,,M*0C
$IIHDT,,T*0C
$IIMWD,,,,,03.49,N,01.80,M*5A
$IIVDR,,,,,,N*0E
$IIVHW,,T,,M,06.06,N,11.22,K*55
$IIVPW,5.88,N,,*04
$IIVTG,111.84,T,111.84,M,5.90,N,,,D*68
$IIMWV,003,R,09.52,N,A*2E
$IIVWT,008,R,03.40,N,01.75,M,,*38
$IIHDT,,T*0C
$GPWCV,,N,,D*5F
$GPXTE,A,A,,R,N,D*06
$GPZDA,104950,,,,00,*41
$IIDBT,040.32,f,012.29,M,006.64,F*28
$GPGLL,6008.996,N,02459.407,E,104950,A,D*4A
$GPGSV,,,,,,,,,,,,,,,,,,,*79
$IIHDM,,M*0C
$IIHDT,,T*0C
$IIMWD,,,,,03.30,N,01.70,M*5B
$IIVDR,,,,,,N*0E
$IIVHW,,T,,M,06.10,N,11.29,K*59
$IIVPW,6.17,N,,*01
$IIVTG,112.51,T,112.51,M,6.03,N,,,D*61
$IIMWV,002,T,03.28,N,A*2E
$IIVWT,002,R,03.28,N,01.69,M,,*31
$IIHDT,,T*0C
$GPWCV,,N,,D*5F
$GPXTE,A,A,,R,N,D*06
$GPZDA,104952,,,,00,*43
$IIDBT,040.22,f,012.26,M,006.62,F*20
$GPGLL,6008.995,N,02459.414,E,104952,A,D*49
$GPGSV,,,,,,,,,,,,,,,,,,,*79
$IIHDM,,M*0C
$IIHDT,,T*0C
$IIMWD,,,,,03.40,N,01.75,M*59
$IIVDR,,,,,,N*0E
$IIVHW,,T,,M,06.13,N,11.35,K*57
$IIVPW,5.87,N,,*0B
$IIVTG,109.78,T,109.78,M,6.01,N,,,D*63
$IIMWV,006,R,09.52,N,A*2B
$IIVWT,018,R,03.47,N,01.79,M,,*32
$IIHDT,,T*0C
$GPWCV,,N,,D*5F
$GPXTE,A,A,,R,N,D*06
$GPZDA,104954,,,,00,*45
$IIDBT,040.38,f,012.31,M,006.65,F*2A
$GPGLL,6008.994,N,02459.420,E,104954,A,D*49
$GPGSV,,,,,,,,,,,,,,,,,,,*79
$IIHDM,,M*0C
$IIHDT,,T*0C
$IIMWD,,,,,03.36,N,01.73,M*5E
$IIVDR,,,,,,N*0E
$IIVHW,,T,,M,06.15,N,11.39,K*5D
$IIVPW,6.06,N,,*01
$IIVTG,110.47,T,110.47,M,5.95,N,,,D*6D
$IIMWV,012,T,03.34,N,A*22
$IIVWT,012,R,03.34,N,01.72,M,,*37
$IIHDT,,T*0C
$GPWCV,,N,,D*5F
$GPXTE,A,A,,R,N,D*06
$GPZDA,104956,,,,00,*47
$IIDBT,040.22,f,012.26,M,006.62,F*20
$GPGLL,6008.993,N,02459.426,E,104956,A,D*4A
$GPGSV,,,,,,,,,,,,,,,,,,,*79
$IIHDM,,M*0C
$IIHDT,,T*0C
$IIMWD,,,,,03.28,N,01.69,M*5A
$IIVDR,,,,,,N*0E
$IIVHW,,T,,M,06.15,N,11.39,K*5D
$IIVPW,6.16,N,,*00
$IIVTG,111.95,T,111.95,M,5.99,N,,,D*61
$IIMWV,001,R,09.52,N,A*2C
$IIVWT,003,R,03.28,N,01.69,M,,*30
$IIHDT,,T*0C
$GPWCV,,N,,D*5F
$GPXTE,A,A,,R,N,D*06
$GPZDA,104958,,,,00,*49
$IIDBT,040.12,f,012.23,M,006.61,F*25
$GPGLL,6008.992,N,02459.432,E,104958,A,D*40
$GPGSV,,,,,,,,,,,,,,,,,,,*79
$IIHDM,,M*0C
$IIHDT,,T*0C
$IIMWD,,,,,03.36,N,01.73,M*5E
$IIVDR,,,,,,N*0E
$IIVHW,,T,,M,06.16,N,11.40,K*50
$IIVPW,6.11,N,,*07
$IIVTG,111.96,T,111.96,M,6.00,N,,,D*62
$IIMWV,016,T,03.32,N,A*20
$IIVWT,016,R,03.32,N,01.71,M,,*36
$IIHDT,,T*0C
$GPWCV,,N,,D*5F
$GPXTE,A,A,,R,N,D*06
$GPZDA,105000,,,,00,*4C
$IIDBT,040.64,f,012.39,M,006.69,F*27
$GPGLL,6008.990,N,02459.439,E,105000,A,D*4C
$GPGSV,,,,,,,,,,,,,,,,,,,*79
$IIHDM,,M*0C
$IIHDT,,T*0C
$IIMWD,,,,,03.44,N,01.77,M*5F
$IIVDR,,,,,,N*0E
$IIVHW,,T,,M,06.16,N,11.40,K*50
$IIVPW,5.87,N,,*0B
$IIVTG,111.12,T,111.12,M,6.00,N,,,D*62
$IIMWV,007,R,09.13,N,A*2F
$IIVWT,019,R,03.24,N,01.67,M,,*39
$IIHDT,,T*0C
$GPWCV,,N,,D*5F
$GPXTE,A,A,,R,N,D*06
$GPZDA,105002,,,,00,*4E
$IIDBT,039.92,f,012.17,M,006.57,F*21
$GPGLL,6008.989,N,02459.445,E,105002,A,D*4D
$GPGSV,,,,,,,,,,,,,,,,,,,*79
$IIHDM,,M*0C
$IIHDT,,T*0C
$IIMWD,,,,,03.01,N,01.55,M*5E
$IIVDR,,,,,,N*0E
$IIVHW,,T,,M,06.12,N,11.33,K*50
$IIVPW,6.08,N,,*0F
$IIVTG,112.83,T,112.83,M,5.92,N,,,D*6A
$IIMWV,003,T,03.32,N,A*24
$IIVWT,003,R,03.32,N,01.71,M,,*32
$IIHDT,,T*0C
$GPWCV,,N,,D*5F
$GPXTE,A,A,,R,N,D*06
$GPZDA,105004,,,,00,*48
$IIDBT,039.79,f,012.13,M,006.55,F*22
$GPGLL,6008.988,N,02459.451,E,105004,A,D*4F
$GPGSV,,,,,,,,,,,,,,,,,,,*79
$IIHDM,,M*0C
$IIHDT,,T*0C
$IIMWD,,,,,03.22,N,01.66,M*5F
$IIVDR,,,,,,N*0E
$IIVHW,,T,,M,06.10,N,11.29,K*59
$IIVPW,5.45,N,,*05
$IIVTG,112.43,T,112.43,M,5.91,N,,,D*69
$IIMWV,008,R,09.13,N,A*20
$IIVWT,024,R,03.09,N,01.59,M,,*35
$IIHDT,,T*0C
$GPWCV,,N,,D*5F
$GPXTE,A,A,,R,N,D*06
$GPZDA,105006,,,,00,*4A
$IIDBT,040.25,f,012.27,M,006.63,F*27
$GPGLL,6008.986,N,02459.457,E,105006,A,D*45
$GPGSV,,,,,,,,,,,,,,,,,,,*79
$IIHDM,,M*0C
$IIHDT,,T*0C
$IIMWD,,,,,02.89,N,01.49,M*52
$IIVDR,,,,,,N*0E
$IIVHW,,T,,M,06.11,N,11.31,K*51
$IIVPW,6.07,N,,*00
$IIVTG,113.88,T,113.88,M,5.95,N,,,D*6D
$IIMWV,004,T,02.87,N,A*2C
$IIVWT,004,R,02.87,N,01.48,M,,*30
$IIHDT,,T*0C
$GPWCV,,N,,D*5F
$GPXTE,A,A,,R,N,D*06
$GPZDA,105008,,,,00,*44
$IIDBT,040.02,f,012.20,M,006.59,F*2C
$GPGLL,6008.985,N,02459.463,E,105008,A,D*4F
$GPGSV,,,,,,,,,,,,,,,,,,,*79
$IIHDM,,M*0C
$IIHDT,,T*0C
$IIMWD,,,,,02.85,N,01.47,M*50
$IIVDR,,,,,,N*0E
$IIVHW,,T,,M,06.15,N,11.39,K*5D
$IIVPW,6.24,N,,*01
$IIVTG,113.97,T,113.97,M,6.06,N,,,D*64
$IIMWV,002,R,09.52,N,A*2F
$IIVWT,005,R,03.47,N,01.79,M,,*3E
$IIHDT,,T*0C
$GPWCV,,N,,D*5F
$GPXTE,A,A,,R,N,D*06
$GPZDA,105010,,,,00,*4D
$IIDBT,039.95,f,012.18,M,006.58,F*26
$GPGLL,6008.984,N,02459.469,E,105010,A,D*4D
$GPGSV,,,,,,,,,,,,,,,,,,,*79
$IIHDM,,M*0C
$IIHDT,,T*0C
$IIMWD,,,,,03.53,N,01.82,M*53
$IIVDR,,,,,,N*0E
$IIVHW,,T,,M,06.13,N,11.35,K*57
$IIVPW,5.70,N,,*03
$IIVTG,111.64,T,111.64,M,6.02,N,,,D*60
$IIMWV,014,T,03.05,N,A*26
$IIVWT,014,R,03.05,N,01.57,M,,*34
$IIHDT,,T*0C
$GPWCV,,N,,D*5F
$GPXTE,A,A,,R,N,D*06
$GPZDA,105012,,,,00,*4F
$IIDBT,039.95,f,012.18,M,006.58,F*26
$GPGLL,6008.983,N,02459.475,E,105012,A,D*45
$GPGSV,,,,,,,,,,,,,,,,,,,*79
$IIHDM,,M*0C
$IIHDT,,T*0C
$IIMWD,,,,,03.03,N,01.56,M*5F
$IIVDR,,,,,,N*0E
$IIVHW,,T,,M,06.12,N,11.33,K*50
$IIVPW,6.07,N,,*00
$IIVTG,112.76,T,112.76,M,6.00,N,,,D*62
$IIMWV,002,R,09.52,N,A*2F
$IIVWT,005,R,03.46,N,01.78,M,,*3E
$IIHDT,,T*0C
$GPWCV,,N,,D*5F
$GPXTE,A,A,,R,N,D*06
$GPZDA,105014,,,,00,*49
$IIDBT,039.63,f,012.08,M,006.52,F*24
$GPGLL,6008.981,N,02459.482,E,105014,A,D*49
$GPGSV,,,,,,,,,,,,,,,,,,,*79
$IIHDM,,M*0C
$IIHDT,,T*0C
$IIMWD,,,,,03.11,N,01.60,M*59
$IIVDR,,,,,,N*0E
$IIVHW,,T,,M,06.07,N,11.24,K*52
$IIVPW,6.00,N,,*07
$IIVTG,113.62,T,113.62,M,5.98,N,,,D*60
$IIMWV,003,T,03.44,N,A*25
$IIVWT,003,R,03.44,N,01.77,M,,*35
$IIHDT,,T*0C
$GPWCV,,N,,D*5F
$GPXTE,A,A,,R,N,D*06
$GPZDA,105016,,,,00,*4B
$IIDBT,040.22,f,012.26,M,006.62,F*20
$GPGLL,6008.980,N,02459.488,E,105017,A,D*41
$GPGSV,,,,,,,,,,,,,,,,,,,*79
$IIHDM,,M*0C
$IIHDT,,T*0C
$IIMWD,,,,,02.77,N,01.43,M*59
$IIVDR,,,,,,N*0E
$IIVHW,,T,,M,06.12,N,11.33,K*50
$IIVPW,6.30,N,,*04
$IIVTG,113.93,T,113.93,M,5.99,N,,,D*61
$IIMWV,359,R,09.13,N,A*27
$IIVWT,004,L,02.99,N,01.54,M,,*2C
$IIHDT,,T*0C
$GPWCV,,N,,D*5F
$GPXTE,A,A,,R,N,D*06
$GPZDA,105018,,,,00,*45
$IIDBT,040.28,f,012.28,M,006.63,F*25
$GPGLL,6008.979,N,02459.494,E,105019,A,D*44
$GPGSV,,,,,,,,,,,,,,,,,,,*79
$IIHDM,,M*0C
$IIHDT,,T*0C
$IIMWD,,,,,03.09,N,01.59,M*5A
$IIVDR,,,,,,N*0E
$IIVHW,,T,,M,06.12,N,11.33,K*50
$IIVPW,5.88,N,,*04
$IIVTG,113.16,T,113.16,M,6.02,N,,,D*60
$IIMWV,008,T,03.03,N,A*2D
$IIVWT,008,R,03.03,N,01.56,M,,*3E
$IIHDT,,T*0C
$GPWCV,,N,,D*5F
$GPXTE,A,A,,R,N,D*06
$GPZDA,105020,,,,00,*4E
$IIDBT,040.12,f,012.23,M,006.61,F*25
$GPGLL,6008.977,N,02459.500,E,105021,A,D*4D
$GPGSV,,,,,,,,,,,,,,,,,,,*79
$IIHDM,,M*0C
$IIHDT,,T*0C
$IIMWD,,,,,03.01,N,01.55,M*5E
$IIVDR,,,,,,N*0E
$IIVHW,,T,,M,06.12,N,11.33,K*50
$IIVPW,5.94,N,,*09
$IIVTG,114.49,T,114.49,M,6.01,N,,,D*63
$IIMWV,358,R,08.74,N,A*26
$IIVWT,008,L,02.62,N,01.35,M,,*23
$IIHDT,,T*0C
$GPWCV,,N,,D*5F
$GPXTE,A,A,,R,N,D*06
$GPZDA,105022,,,,00,*4C
$IIDBT,040.28,f,012.28,M,006.63,F*25
$GPGLL,6008.976,N,02459.506,E,105023,A,D*48
$GPGSV,,,,,,,,,,,,,,,,,,,*79
$IIHDM,,M*0C
$IIHDT,,T*0C
$IIMWD,,,,,03.12,N,01.61,M*5B
$IIVDR,,,,,,N*0E
$IIVHW,,T,,M,06.10,N,11.29,K*59
$IIVPW,5.94,N,,*09
$IIVTG,116.15,T,116.15,M,6.00,N,,,D*62
$IIMWV,004,T,03.20,N,A*20
$IIVWT,004,R,03.20,N,01.65,M,,*33
$IIHDT,,T*0C
$GPWCV,,N,,D*5F
$GPXTE,A,A,,R,N,D*06
$GPZDA,105024,,,,00,*4A
$IIDBT,039.69,f,012.10,M,006.54,F*21
$GPGLL,6008.974,N,02459.512,E,105025,A,D*49
$GPGSV,,,,,,,,,,,,,,,,,,,*79
$IIHDM,,M*0C
$IIHDT,,T*0C
$IIMWD,,,,,02.99,N,01.54,M*5F
$IIVDR,,,,,,N*0E
$IIVHW,,T,,M,06.08,N,11.26,K*5F
$IIVPW,6.11,N,,*07
$IIVTG,117.14,T,117.14,M,6.00,N,,,D*62
$IIMWV,000,R,09.13,N,A*28
$IIVWT,001,R,03.12,N,01.61,M,,*33
$IIHDT,,T*0C
$GPWCV,,N,,D*5F
$GPXTE,A,A,,R,N,D*06
$GPZDA,105026,,,,00,*48
$IIDBT,039.56,f,012.06,M,006.51,F*2F
$GPGLL,6008.972,N,02459.521,E,105027,A,D*4D
$GPGSV,,,,,,,,,,,,,,,,,,,*79
$IIHDM,,M*0C
$IIHDT,,T*0C
$IIMWD,,,,,03.32,N,01.71,M*58
$IIVDR,,,,,,N*0E
$IIVHW,,T,,M,06.10,N,11.29,K*59
$IIVPW,6.17,N,,*01
$IIVTG,118.32,T,118.32,M,5.96,N,,,D*6E
$IIMWV,359,T,02.85,N,A*25
$IIVWT,001,L,02.85,N,01.47,M,,*26
$IIHDT,,T*0C
$GPWCV,,N,,D*5F
$GPXTE,A,A,,R,N,D*06
$GPZDA,105028,,,,00,*46
$IIDBT,039.86,f,012.15,M,006.56,F*27
$GPGLL,6008.970,N,02459.527,E,105029,A,D*47
$GPGSV,,,,,,,,,,,,,,,,,,,*79
$IIHDM,,M*0C
$IIHDT,,T*0C
$IIMWD,,,,,03.24,N,01.67,M*58
$IIVDR,,,,,,N*0E
$IIVHW,,T,,M,06.14,N,11.37,K*52
$IIVPW,6.25,N,,*00
$IIVTG,118.05,T,118.05,M,5.99,N,,,D*61
$IIMWV,001,R,09.13,N,A*29
$IIVWT,002,R,03.01,N,01.55,M,,*35
$IIHDT,,T*0C
$GPWCV,,N,,D*5F
$GPXTE,A,A,,R,N,D*06
$GPZDA,105031,,,,00,*4E
$IIDBT,039.92,f,012.17,M,006.57,F*21
$GPGLL,6008.969,N,02459.533,E,105031,A,D*43
$GPGSV,,,,,,,,,,,,,,,,,,,*79
$IIHDM,,M*0C
$IIHDT,,T*0C
$IIMWD,,,,,03.09,N,01.59,M*5A
$IIVDR,,,,,,N*0E
$IIVHW,,T,,M,06.12,N,11.33,K*50
$IIVPW,6.00,N,,*07
$IIVTG,117.04,T,117.04,M,6.02,N,,,D*60
$IIMWV,359,T,03.44,N,A*29
$IIVWT,001,L,03.44,N,01.77,M,,*29
$IIHDT,,T*0C
$GPWCV,,N,,D*5F
$GPXTE,A,A,,R,N,D*06
$GPZDA,105033,,,,00,*4C
$IIDBT,039.86,f,012.15,M,006.56,F*27
$GPGLL,6008.967,N,02459.539,E,105033,A,D*45
$GPGSV,,,,,,,,,,,,,,,,,,,*79
$IIHDM,,M*0C
$IIHDT,,T*0C
$IIMWD,,,,,03.36,N,01.73,M*5E
$IIVDR,,,,,,N*0E
$IIVHW,,T,,M,06.13,N,11.35,K*57
$IIVPW,6.13,N,,*05
$IIVTG,117.26,T,117.26,M,5.98,N,,,D*60
$IIMWV,360,R,09.13,N,A*2D
$IIVWT,001,L,02.76,N,01.42,M,,*2F
$IIHDT,,T*0C
$GPWCV,,N,,D*5F
$GPXTE,A,A,,R,N,D*06
$GPZDA,105035,,,,00,*4A
$IIDBT,039.59,f,012.07,M,006.52,F*22
$GPGLL,6008.966,N,02459.545,E,105035,A,D*49
$GPGSV,,,,,,,,,,,,,,,,,,,*79
$IIHDM,,M*0C
$IIHDT,,T*0C
$IIMWD,,,,,02.68,N,01.38,M*5B
$IIVDR,,,,,,N*0E
$IIVHW,,T,,M,06.20,N,11.48,K*5D
$IIVPW,6.43,N,,*00
$IIVTG,118.19,T,118.19,M,5.92,N,,,D*6A
$IIMWV,352,T,03.01,N,A*23
$IIVWT,008,L,03.01,N,01.55,M,,*21
$IIHDT,,T*0C
$GPWCV,,N,,D*5F
$GPXTE,A,A,,R,N,D*06
$GPZDA,105037,,,,00,*48
$IIDBT,039.63,f,012.08,M,006.52,F*24
$GPGLL,6008.964,N,02459.550,E,105037,A,D*4D
$GPGSV,,,,,,,,,,,,,,,,,,,*79
$IIHDM,,M*0C
$IIHDT,,T*0C
$IIMWD,,,,,02.91,N,01.50,M*53
$IIVDR,,,,,,N*0E
$IIVHW,,T,,M,06.20,N,11.48,K*5D
$IIVPW,6.17,N,,*01
$IIVTG,119.45,T,119.45,M,6.01,N,,,D*63
$IIMWV,360,R,09.13,N,A*2D
$IIVWT,002,L,02.93,N,01.51,M,,*25
$IIHDT,,T*0C
$GPWCV,,N,,D*5F
$GPXTE,A,A,,R,N,D*06
$GPZDA,105039,,,,00,*46
$IIDBT,040.25,f,012.27,M,006.63,F*27
$GPGLL,6008.962,N,02459.556,E,105039,A,D*43
$GPGSV,,,,,,,,,,,,,,,,,,,*79
$IIHDM,,M*0C
$IIHDT,,T*0C
$IIMWD,,,,,03.51,N,01.81,M*52
$IIVDR,,,,,,N*0E
$IIVHW,,T,,M,06.17,N,11.42,K*53
$IIVPW,5.86,N,,*0A
$IIVTG,119.91,T,119.91,M,6.08,N,,,D*6A
$IIMWV,005,T,02.50,N,A*27
$IIVWT,005,R,02.50,N,01.29,M,,*3C
$IIHDT,,T*0C
$GPWCV,,N,,D*5F
$GPXTE,A,A,,R,N,D*06
$GPZDA,105041,,,,00,*49
$IIDBT,039.99,f,012.19,M,006.58,F*2B
$GPGLL,6008.960,N,02459.562,E,105041,A,D*49
$GPGSV,,,,,,,,,,,,,,,,,,,*79
$IIHDM,,M*0C
$IIHDT,,T*0C
$IIMWD,,,,,02.97,N,01.53,M*56
$IIVDR,,,,,,N*0E
$IIVHW,,T,,M,06.15,N,11.39,K*5D
$IIVPW,5.97,N,,*0A
$IIVTG,120.95,T,120.95,M,6.02,N,,,D*60
$IIMWV,358,R,08.74,N,A*26
$IIVWT,005,L,02.66,N,01.37,M,,*28
$IIHDT,,T*0C
$GPWCV,,N,,D*5F
$GPXTE,A,A,,R,N,D*06
$GPZDA,105043,,,,00,*4B
$IIDBT,040.02,f,012.20,M,006.59,F*2C
$GPGLL,6008.959,N,02459.568,E,105043,A,D*4B
$GPGSV,,,,,,,,,,,,,,,,,,,*79
$IIHDM,,M*0C
$IIHDT,,T*0C
$IIMWD,,,,,02.60,N,01.34,M*5F
$IIVDR,,,,,,N*0E
$IIVHW,,T,,M,06.14,N,11.37,K*52
$IIVPW,6.11,N,,*07
$IIVTG,120.14,T,120.14,M,5.93,N,,,D*6B
$IIMWV,357,T,03.20,N,A*25
$IIVWT,003,L,03.20,N,01.65,M,,*2A
$IIHDT,,T*0C
$GPWCV,,N,,D*5F
$GPXTE,A,A,,R,N,D*06
$GPZDA,105045,,,,00,*4D
$IIDBT,039.79,f,012.13,M,006.55,F*22
$GPGLL,6008.957,N,02459.573,E,105045,A,D*49
$GPGSV,,,,,,,,,,,,,,,,,,,*79
$IIHDM,,M*0C
$IIHDT,,T*0C
$IIMWD,,,,,03.22,N,01.66,M*5F
$IIVDR,,,,,,N*0E
$IIVHW,,T,,M,06.07,N,11.24,K*52
$IIVPW,5.86,N,,*0A
$IIVTG,121.14,T,121.14,M,5.91,N,,,D*69
$IIMWV,357,R,09.13,N,A*29
$IIVWT,008,L,03.07,N,01.58,M,,*2A
$IIHDT,,T*0C
$GPWCV,,N,,D*5F
$GPXTE,A,A,,R,N,D*06
$GPZDA,105047,,,,00,*4F
$IIDBT,039.76,f,012.12,M,006.55,F*2C
$GPGLL,6008.955,N,02459.579,E,105047,A,D*43
$GPGSV,,,,,,,,,,,,,,,,,,,*79
$IIHDM,,M*0C
$IIHDT,,T*0C
$IIMWD,,,,,03.11,N,01.60,M*59
$IIVDR,,,,,,N*0E
$IIVHW,,T,,M,06.07,N,11.24,K*52
$IIVPW,5.99,N,,*04
$IIVTG,122.93,T,122.93,M,5.95,N,,,D*6D
$IIMWV,358,T,03.01,N,A*29
$IIVWT,002,L,03.01,N,01.55,M,,*2B
$IIHDT,,T*0C
$GPWCV,,N,,D*5F
$GPXTE,A,A,,R,N,D*06
$GPZDA,105049,,,,00,*41
$IIDBT,040.25,f,012.27,M,006.63,F*27
$GPGLL,6008.953,N,02459.584,E,105049,A,D*49
$GPGSV,,,,,,,,,,,,,,,,,,,*79
$IIHDM,,M*0C
$IIHDT,,T*0C
$IIMWD,,,,,02.99,N,01.54,M*5F
$IIVDR,,,,,,N*0E
$IIVHW,,T,,M,06.08,N,11.26,K*5F
$IIVPW,6.09,N,,*0E
$IIVTG,124.33,T,124.33,M,5.99,N,,,D*61
$IIMWV,002,R,09.13,N,A*2A
$IIVWT,006,R,03.01,N,01.55,M,,*31
$IIHDT,,T*0C
$GPWCV,,N,,D*5F
$GPXTE,A,A,,R,N,D*06
$GPZDA,105051,,,,00,*48
$IIDBT,040.12,f,012.23,M,006.61,F*25
$GPGLL,6008.952,N,02459.590,E,105051,A,D*44
$GPGSV,,,,,,,,,,,,,,,,,,,*79
$IIHDM,,M*0C
$IIHDT,,T*0C
$IIMWD,,,,,02.91,N,01.50,M*53
$IIVDR,,,,,,N*0E
$IIVHW,,T,,M,06.11,N,11.31,K*51
$IIVPW,6.18,N,,*0E
