$IIDBT,064.13,f,019.55,M,010.56,F*2B
$GPGLL,6011.746,N,02527.087,E,075110,A,D*4E
$GPGSV,,,,,,,,,,,,,,,,,,,*79
$IIHDM,,M*0C
$IIHDT,,T*0C
$IIMWD,,,,,03.90,N,02.01,M*54
$IIVDR,,,,,,N*0E
$IIVHW,,T,,M,06.10,N,11.29,K*59
$IIVPW,3.67,N,,*03
$IIVTG,257.58,T,257.58,M,6.09,N,,,D*6B
$IIMWV,339,R,09.13,N,A*21
$IIVWT,054,L,04.06,N,02.09,M,,*22
$IIHDT,,T*0C
$GPWCV,,N,,D*5F
$GPXTE,A,A,,R,N,D*06
$GPZDA,075112,,,,00,*48
$IIDBT,063.81,f,019.45,M,010.51,F*21
$GPGLL,6011.746,N,02527.081,E,075112,A,D*4A
$GPGSV,,,,,,,,,,,,,,,,,,,*79
$IIHDM,,M*0C
$IIHDT,,T*0C
$IIMWD,,,,,03.94,N,02.03,M*52
$IIVDR,,,,,,N*0E
$IIVHW,,T,,M,06.11,N,11.31,K*51
$IIVPW,3.38,N,,*09
$IIVTG,257.17,T,257.17,M,6.10,N,,,D*63
$IIMWV,309,T,03.98,N,A*2D
$IIVWT,051,L,03.98,N,02.05,M,,*2B
$IIHDT,,T*0C
$GPWCV,,N,,D*5F
$GPXTE,A,A,,R,N,D*06
$GPZDA,075114,,,,00,*4E
$IIDBT,063.77,f,019.44,M,010.50,F*28
$GPGLL,6011.745,N,02527.074,E,075114,A,D*45
$GPGSV,,,,,,,,,,,,,,,,,,,*79
$IIHDM,,M*0C
$IIHDT,,T*0C
$IIMWD,,,,,03.53,N,01.82,M*53
$IIVDR,,,,,,N*0E
$IIVHW,,T,,M,06.13,N,11.35,K*57
$IIVPW,3.55,N,,*02
$IIVTG,257.12,T,257.12,M,6.02,N,,,D*60
$IIMWV,338,R,08.74,N,A*20
$IIVWT,061,L,03.82,N,01.97,M,,*2B
$IIHDT,,T*0C
$GPWCV,,N,,D*5F
$GPXTE,A,A,,R,N,D*06
$GPZDA,075116,,,,00,*4C
$IIDBT,062.85,f,019.16,M,010.35,F*20
$GPGLL,6011.744,N,02527.068,E,075116,A,D*4B
$GPGSV,,,,,,,,,,,,,,,,,,,*79
$IIHDM,,M*0C
$IIHDT,,T*0C
$IIMWD,,,,,03.88,N,02.00,M*5C
$IIVDR,,,,,,N*0E
$IIVHW,,T,,M,06.14,N,11.37,K*52
$IIVPW,3.04,N,,*06
$IIVTG,257.40,T,257.40,M,6.01,N,,,D*63
$IIMWV,303,T,03.71,N,A*20
$IIVWT,057,L,03.71,N,01.91,M,,*24
$IIHDT,,T*0C
$GPWCV,,N,,D*5F
$GPXTE,A,A,,R,N,D*06
$GPZDA,075118,,,,00,*42
$IIDBT,062.13,f,018.94,M,010.23,F*23
$GPGLL,6011.743,N,02527.061,E,075118,A,D*4B
$GPGSV,,,,,,,,,,,,,,,,,,,*79
$IIHDM,,M*0C
$IIHDT,,T*0C
$IIMWD,,,,,04.12,N,02.12,M*5B
$IIVDR,,,,,,N*0E
$IIVHW,,T,,M,06.12,N,11.33,K*50
$IIVPW,3.04,N,,*06
$IIVTG,258.07,T,258.07,M,6.00,N,,,D*62
$IIMWV,338,R,09.13,N,A*20
$IIVWT,055,L,04.15,N,02.14,M,,*2D
$IIHDT,,T*0C
$GPWCV,,N,,D*5F
$GPXTE,A,A,,R,N,D*06
$GPZDA,075120,,,,00,*49
$IIDBT,062.33,f,019.00,M,010.27,F*29
$GPGLL,6011.743,N,02527.054,E,075120,A,D*46
$GPGSV,,,,,,,,,,,,,,,,,,,*79
$IIHDM,,M*0C
$IIHDT,,T*0C
$IIMWD,,,,,04.00,N,02.06,M*5D
$IIVDR,,,,,,N*0E
$IIVHW,,T,,M,06.10,N,11.29,K*59
$IIVPW,3.64,N,,*00
$IIVTG,258.22,T,258.22,M,6.05,N,,,D*67
$IIMWV,310,T,03.92,N,A*2F
$IIVWT,050,L,03.92,N,02.02,M,,*27
$IIHDT,,T*0C
$GPWCV,,N,,D*5F
$GPXTE,A,A,,R,N,D*06
$GPZDA,075122,,,,00,*4B
$IIDBT,062.56,f,019.07,M,010.30,F*2B
$GPGLL,6011.742,N,02527.048,E,075122,A,D*48
$GPGSV,,,,,,,,,,,,,,,,,,,*79
$IIHDM,,M*0C
$IIHDT,,T*0C
$IIMWD,,,,,04.37,N,02.25,M*58
$IIVDR,,,,,,N*0E
$IIVHW,,T,,M,06.10,N,11.29,K*59
$IIVPW,3.72,N,,*07
$IIVTG,257.68,T,257.68,M,6.01,N,,,D*63
$IIMWV,338,R,09.52,N,A*25
$IIVWT,054,L,04.49,N,02.31,M,,*22
$IIHDT,,T*0C
$GPWCV,,N,,D*5F
$GPXTE,A,A,,R,N,D*06
$GPZDA,075124,,,,00,*4D
$IIDBT,062.07,f,018.92,M,010.22,F*21
$GPGLL,6011.741,N,02527.041,E,075124,A,D*44
$GPGSV,,,,,,,,,,,,,,,,,,,*79
$IIHDM,,M*0C
$IIHDT,,T*0C
$IIMWD,,,,,04.31,N,02.22,M*59
$IIVDR,,,,,,N*0E
$IIVHW,,T,,M,06.10,N,11.29,K*59
$IIVPW,3.79,N,,*0C
$IIVTG,256.94,T,256.94,M,6.00,N,,,D*62
$IIMWV,302,T,04.14,N,A*25
$IIVWT,058,L,04.14,N,02.13,M,,*26
$IIHDT,,T*0C
$GPWCV,,N,,D*5F
$GPXTE,A,A,,R,N,D*06
$GPZDA,075126,,,,00,*4F
$IIDBT,061.18,f,018.65,M,010.08,F*2C
$GPGLL,6011.741,N,02527.035,E,075126,A,D*45
$GPGSV,,,,,,,,,,,,,,,,,,,*79
$IIHDM,,M*0C
$IIHDT,,T*0C
$IIMWD,,,,,04.14,N,02.13,M*5C
$IIVDR,,,,,,N*0E
$IIVHW,,T,,M,06.11,N,11.31,K*51
$IIVPW,3.73,N,,*06
$IIVTG,256.91,T,256.91,M,5.95,N,,,D*6D
$IIMWV,340,R,09.13,N,A*2F
$IIVWT,052,L,03.94,N,02.03,M,,*22
$IIHDT,,T*0C
$GPWCV,,N,,D*5F
$GPXTE,A,A,,R,N,D*06
$GPZDA,075128,,,,00,*41
$IIDBT,060.53,f,018.45,M,009.97,F*2E
$GPGLL,6011.740,N,02527.028,E,075128,A,D*46
$GPGSV,,,,,,,,,,,,,,,,,,,*79
$IIHDM,,M*0C
$IIHDT,,T*0C
$IIMWD,,,,,03.88,N,02.00,M*5C
$IIVDR,,,,,,N*0E
$IIVHW,,T,,M,06.14,N,11.37,K*52
$IIVPW,3.62,N,,*06
$IIVTG,257.38,T,257.38,M,5.99,N,,,D*61
$IIMWV,307,T,03.86,N,A*2C
$IIVWT,053,L,03.86,N,01.99,M,,*20
$IIHDT,,T*0C
$GPWCV,,N,,D*5F
$GPXTE,A,A,,R,N,D*06
$GPZDA,075130,,,,00,*48
$IIDBT,061.51,f,018.75,M,010.13,F*2A
$GPGLL,6011.739,N,02527.022,E,075131,A,D*4A
$GPGSV,,,,,,,,,,,,,,,,,,,*79
$IIHDM,,M*0C
$IIHDT,,T*0C
$IIMWD,,,,,03.86,N,01.99,M*51
$IIVDR,,,,,,N*0E
$IIVHW,,T,,M,06.14,N,11.37,K*52
$IIVPW,4.09,N,,*0C
$IIVTG,257.75,T,257.75,M,6.00,N,,,D*62
$IIMWV,342,R,09.13,N,A*2D
$IIVWT,049,L,03.73,N,01.92,M,,*2A
$IIHDT,,T*0C
$GPWCV,,N,,D*5F
$GPXTE,A,A,,R,N,D*06
$GPZDA,075132,,,,00,*4A
$IIDBT,064.27,f,019.59,M,010.58,F*2E
$GPGLL,6011.738,N,02527.015,E,075133,A,D*4D
$GPGSV,,,,,,,,,,,,,,,,,,,*79
$IIHDM,,M*0C
$IIHDT,,T*0C
$IIMWD,,,,,03.86,N,01.99,M*51
$IIVDR,,,,,,N*0E
$IIVHW,,T,,M,06.14,N,11.37,K*52
$IIVPW,4.19,N,,*0D
$IIVTG,257.61,T,257.61,M,6.00,N,,,D*62
$IIMWV,313,T,03.75,N,A*25
$IIVWT,047,L,03.75,N,01.93,M,,*23
$IIHDT,,T*0C
$GPWCV,,N,,D*5F
$GPXTE,A,A,,R,N,D*06
$GPZDA,075134,,,,00,*4C
$IIDBT,064.66,f,019.71,M,010.65,F*2F
$GPGLL,6011.738,N,02527.009,E,075135,A,D*46
$GPGSV,,,,,,,,,,,,,,,,,,,*79
$IIHDM,,M*0C
$IIHDT,,T*0C
$IIMWD,,,,,04.06,N,02.09,M*54
$IIVDR,,,,,,N*0E
$IIVHW,,T,,M,06.13,N,11.35,K*57
$IIVPW,3.61,N,,*05
$IIVTG,257.60,T,257.60,M,6.05,N,,,D*67
$IIMWV,339,R,09.52,N,A*24
$IIVWT,052,L,04.37,N,02.25,M,,*28
$IIHDT,,T*0C
$GPWCV,,N,,D*5F
$GPXTE,A,A,,R,N,D*06
$GPZDA,075136,,,,00,*4E
$IIDBT,064.76,f,019.74,M,010.67,F*29
$GPGLL,6011.737,N,02527.002,E,075137,A,D*40
$GPGSV,,,,,,,,,,,,,,,,,,,*79
$IIHDM,,M*0C
$IIHDT,,T*0C
$IIMWD,,,,,03.80,N,01.96,M*58
$IIVDR,,,,,,N*0E
$IIVHW,,T,,M,06.14,N,11.37,K*52
$IIVPW,4.23,N,,*04
$IIVTG,256.67,T,256.67,M,6.06,N,,,D*64
$IIMWV,315,T,03.71,N,A*27
$IIVWT,045,L,03.71,N,01.91,M,,*27
$IIHDT,,T*0C
$GPWCV,,N,,D*5F
$GPXTE,A,A,,R,N,D*06
$GPZDA,075138,,,,00,*40
$IIDBT,064.59,f,019.69,M,010.64,F*2B
$GPGLL,6011.736,N,02526.995,E,075139,A,D*49
$GPGSV,,,,,,,,,,,,,,,,,,,*79
$IIHDM,,M*0C
$IIHDT,,T*0C
$IIMWD,,,,,03.82,N,01.97,M*5B
$IIVDR,,,,,,N*0E
$IIVHW,,T,,M,06.11,N,11.31,K*51
$IIVPW,4.07,N,,*02
$IIVTG,256.79,T,256.79,M,6.02,N,,,D*60
$IIMWV,342,R,09.13,N,A*2D
$IIVWT,048,L,03.80,N,01.96,M,,*23
$IIHDT,,T*0C
$GPWCV,,N,,D*5F
$GPXTE,A,A,,R,N,D*06
$GPZDA,075140,,,,00,*4F
$IIDBT,064.33,f,019.61,M,010.59,F*21
$GPGLL,6011.735,N,02526.989,E,075141,A,D*48
$GPGSV,,,,,,,,,,,,,,,,,,,*79
$IIHDM,,M*0C
$IIHDT,,T*0C
$IIMWD,,,,,03.98,N,02.05,M*58
$IIVDR,,,,,,N*0E
$IIVHW,,T,,M,06.10,N,11.29,K*59
$IIVPW,4.55,N,,*05
$IIVTG,257.03,T,257.03,M,6.00,N,,,D*62
$IIMWV,314,T,04.15,N,A*23
$IIVWT,046,L,04.15,N,02.14,M,,*2F
$IIHDT,,T*0C
$GPWCV,,N,,D*5F
$GPXTE,A,A,,R,N,D*06
$GPZDA,075143,,,,00,*4C
$IIDBT,063.64,f,019.40,M,010.48,F*27
$GPGLL,6011.735,N,02526.983,E,075143,A,D*40
$GPGSV,,,,,,,,,,,,,,,,,,,*79
$IIHDM,,M*0C
$IIHDT,,T*0C
$IIMWD,,,,,04.23,N,02.18,M*53
$IIVDR,,,,,,N*0E
$IIVHW,,T,,M,06.08,N,11.26,K*5F
$IIVPW,4.24,N,,*03
$IIVTG,257.26,T,257.26,M,6.00,N,,,D*62
$IIMWV,342,R,09.13,N,A*2D
$IIVWT,048,L,03.80,N,01.96,M,,*23
$IIHDT,,T*0C
$GPWCV,,N,,D*5F
$GPXTE,A,A,,R,N,D*06
$GPZDA,075145,,,,00,*4A
$IIDBT,063.08,f,019.23,M,010.39,F*2E
$GPGLL,6011.734,N,02526.976,E,075145,A,D*4D
$GPGSV,,,,,,,,,,,,,,,,,,,*79
$IIHDM,,M*0C
$IIHDT,,T*0C
$IIMWD,,,,,04.33,N,02.23,M*5A
$IIVDR,,,,,,N*0E
$IIVHW,,T,,M,06.08,N,11.26,K*5F
$IIVPW,4.60,N,,*03
$IIVTG,257.99,T,257.99,M,6.08,N,,,D*6A
$IIMWV,316,T,03.63,N,A*27
$IIVWT,044,L,03.63,N,01.87,M,,*22
$IIHDT,,T*0C
$GPWCV,,N,,D*5F
$GPXTE,A,A,,R,N,D*06
$GPZDA,075147,,,,00,*48
$IIDBT,062.49,f,019.05,M,010.29,F*2F
$GPGLL,6011.733,N,02526.969,E,075147,A,D*46
$GPGSV,,,,,,,,,,,,,,,,,,,*79
$IIHDM,,M*0C
$IIHDT,,T*0C
$IIMWD,,,,,03.96,N,02.04,M*57
$IIVDR,,,,,,N*0E
$IIVHW,,T,,M,06.08,N,11.26,K*5F
$IIVPW,4.07,N,,*02
$IIVTG,258.57,T,258.57,M,6.09,N,,,D*6B
$IIMWV,342,R,09.13,N,A*2D
$IIVWT,048,L,03.88,N,02.00,M,,*27
$IIHDT,,T*0C
$GPWCV,,N,,D*5F
$GPXTE,A,A,,R,N,D*06
$GPZDA,075149,,,,00,*46
$IIDBT,062.07,f,018.92,M,010.22,F*21
$GPGLL,6011.732,N,02526.960,E,075149,A,D*40
$GPGSV,,,,,,,,,,,,,,,,,,,*79
$IIHDM,,M*0C
$IIHDT,,T*0C
$IIMWD,,,,,04.60,N,02.37,M*59
$IIVDR,,,,,,N*0E
$IIVHW,,T,,M,06.11,N,11.31,K*51
$IIVPW,3.28,N,,*08
$IIVTG,258.35,T,258.35,M,6.05,N,,,D*67
$IIMWV,303,T,04.70,N,A*26
$IIVWT,057,L,04.70,N,02.42,M,,*2F
$IIHDT,,T*0C
$GPWCV,,N,,D*5F
$GPXTE,A,A,,R,N,D*06
$GPZDA,075151,,,,00,*4F
$IIDBT,061.41,f,018.72,M,010.11,F*2E
$GPGLL,6011.731,N,02526.953,E,075151,A,D*4A
$GPGSV,,,,,,,,,,,,,,,,,,,*79
$IIHDM,,M*0C
$IIHDT,,T*0C
$IIMWD,,,,,04.56,N,02.35,M*5E
$IIVDR,,,,,,N*0E
$IIVHW,,T,,M,06.10,N,11.29,K*59
$IIVPW,3.67,N,,*03
$IIVTG,257.47,T,257.47,M,6.01,N,,,D*63
$IIMWV,339,R,09.52,N,A*24
$IIVWT,050,L,04.41,N,02.27,M,,*29
$IIHDT,,T*0C
$GPWCV,,N,,D*5F
$GPXTE,A,A,,R,N,D*06
$GPZDA,075153,,,,00,*4D
$IIDBT,060.59,f,018.47,M,009.98,F*29
$GPGLL,6011.731,N,02526.947,E,075153,A,D*4D
$GPGSV,,,,,,,,,,,,,,,,,,,*79
$IIHDM,,M*0C
$IIHDT,,T*0C
$IIMWD,,,,,04.58,N,02.36,M*53
$IIVDR,,,,,,N*0E
$IIVHW,,T,,M,06.11,N,11.31,K*51
$IIVPW,3.62,N,,*06
$IIVTG,257.92,T,257.92,M,6.00,N,,,D*62
$IIMWV,308,T,04.00,N,A*2A
$IIVWT,052,L,04.00,N,02.06,M,,*2D
$IIHDT,,T*0C
$GPWCV,,N,,D*5F
$GPXTE,A,A,,R,N,D*06
$GPZDA,075155,,,,00,*4B
$IIDBT,060.10,f,018.32,M,009.90,F*2E
$GPGLL,6011.730,N,02526.940,E,075155,A,D*4D
$GPGSV,,,,,,,,,,,,,,,,,,,*79
$IIHDM,,M*0C
$IIHDT,,T*0C
$IIMWD,,,,,04.21,N,02.17,M*5E
$IIVDR,,,,,,N*0E
$IIVHW,,T,,M,06.10,N,11.29,K*59
$IIVPW,3.55,N,,*02
$IIVTG,258.16,T,258.16,M,6.05,N,,,D*67
$IIMWV,338,R,09.13,N,A*20
$IIVWT,055,L,04.15,N,02.14,M,,*2D
$IIHDT,,T*0C
$GPWCV,,N,,D*5F
$GPXTE,A,A,,R,N,D*06
$GPZDA,075157,,,,00,*49
$IIDBT,059.38,f,018.10,M,009.78,F*28
$GPGLL,6011.729,N,02526.933,E,075157,A,D*43
$GPGSV,,,,,,,,,,,,,,,,,,,*79
$IIHDM,,M*0C
$IIHDT,,T*0C
$IIMWD,,,,,04.70,N,02.42,M*5A
$IIVDR,,,,,,N*0E
$IIVHW,,T,,M,06.09,N,11.27,K*5F
$IIVPW,3.31,N,,*00
$IIVTG,258.26,T,258.26,M,6.09,N,,,D*6B
$IIMWV,302,T,04.72,N,A*25
$IIVWT,058,L,04.72,N,02.43,M,,*23
$IIHDT,,T*0C
$GPWCV,,N,,D*5F
$GPXTE,A,A,,R,N,D*06
$GPZDA,075159,,,,00,*47
$IIDBT,058.49,f,017.83,M,009.63,F*20
$GPGLL,6011.729,N,02526.927,E,075159,A,D*48
$GPGSV,,,,,,,,,,,,,,,,,,,*79
$IIHDM,,M*0C
$IIHDT,,T*0C
$IIMWD,,,,,04.50,N,02.32,M*5F
$IIVDR,,,,,,N*0E
$IIVHW,,T,,M,06.11,N,11.31,K*51
$IIVPW,3.64,N,,*00
$IIVTG,258.19,T,258.19,M,6.05,N,,,D*67
$IIMWV,337,R,09.13,N,A*2F
$IIVWT,056,L,04.23,N,02.18,M,,*27
$IIHDT,,T*0C
$GPWCV,,N,,D*5F
$GPXTE,A,A,,R,N,D*06
$GPZDA,075201,,,,00,*49
$IIDBT,056.69,f,017.28,M,009.34,F*2F
$GPGLL,6011.728,N,02526.920,E,075201,A,D*40
$GPGSV,,,,,,,,,,,,,,,,,,,*79
$IIHDM,,M*0C
$IIHDT,,T*0C
$IIMWD,,,,,04.41,N,02.27,M*5B
$IIVDR,,,,,,N*0E
$IIVHW,,T,,M,06.09,N,11.27,K*5F
$IIVPW,3.03,N,,*01
$IIVTG,259.05,T,259.05,M,5.96,N,,,D*6E
$IIMWV,300,T,04.29,N,A*29
$IIVWT,060,L,04.29,N,02.21,M,,*22
$IIHDT,,T*0C
$GPWCV,,N,,D*5F
$GPXTE,A,A,,R,N,D*06
$GPZDA,075203,,,,00,*4B
$IIDBT,052.09,f,015.88,M,008.58,F*2E
$GPGLL,6011.727,N,02526.914,E,075203,A,D*4A
$GPGSV,,,,,,,,,,,,,,,,,,,*79
$IIHDM,,M*0C
$IIHDT,,T*0C
$IIMWD,,,,,04.35,N,02.24,M*5B
$IIVDR,,,,,,N*0E
$IIVHW,,T,,M,06.10,N,11.29,K*59
$IIVPW,3.35,N,,*04
$IIVTG,259.04,T,259.04,M,5.99,N,,,D*61
$IIMWV,337,R,09.13,N,A*2F
$IIVWT,058,L,04.23,N,02.18,M,,*29
$IIHDT,,T*0C
$GPWCV,,N,,D*5F
$GPXTE,A,A,,R,N,D*06
$GPZDA,075205,,,,00,*4D
$IIDBT,049.34,f,015.04,M,008.12,F*20
$GPGLL,6011.727,N,02526.907,E,075205,A,D*4E
$GPGSV,,,,,,,,,,,,,,,,,,,*79
$IIHDM,,M*0C
$IIHDT,,T*0C
$IIMWD,,,,,04.43,N,02.28,M*56
$IIVDR,,,,,,N*0E
$IIVHW,,T,,M,06.11,N,11.31,K*51
$IIVPW,3.16,N,,*05
$IIVTG,259.40,T,259.40,M,6.05,N,,,D*67
$IIMWV,306,T,04.58,N,A*29
$IIVWT,054,L,04.58,N,02.36,M,,*25
$IIHDT,,T*0C
$GPWCV,,N,,D*5F
$GPXTE,A,A,,R,N,D*06
$GPZDA,075207,,,,00,*4F
$IIDBT,047.99,f,014.63,M,007.90,F*2C
$GPGLL,6011.726,N,02526.901,E,075207,A,D*4B
$GPGSV,,,,,,,,,,,,,,,,,,,*79
$IIHDM,,M*0C
$IIHDT,,T*0C
$IIMWD,,,,,04.45,N,02.29,M*51
$IIVDR,,,,,,N*0E
$IIVHW,,T,,M,06.09,N,11.27,K*5F
$IIVPW,3.05,N,,*07
$IIVTG,258.98,T,258.98,M,6.06,N,,,D*64
$IIMWV,337,R,09.13,N,A*2F
$IIVWT,058,L,04.27,N,02.20,M,,*26
$IIHDT,,T*0C
$GPWCV,,N,,D*5F
$GPXTE,A,A,,R,N,D*06
$GPZDA,075209,,,,00,*41
$IIDBT,047.93,f,014.61,M,007.89,F*2C
$GPGLL,6011.725,N,02526.894,E,075209,A,D*4B
$GPGSV,,,,,,,,,,,,,,,,,,,*79
$IIHDM,,M*0C
$IIHDT,,T*0C
$IIMWD,,,,,04.33,N,02.23,M*5A
$IIVDR,,,,,,N*0E
$IIVHW,,T,,M,06.09,N,11.27,K*5F
$IIVPW,3.29,N,,*09
$IIVTG,258.47,T,258.47,M,6.09,N,,,D*6B
$IIMWV,302,T,04.29,N,A*2B
$IIVWT,058,L,04.29,N,02.21,M,,*29
$IIHDT,,T*0C
$GPWCV,,N,,D*5F
$GPXTE,A,A,,R,N,D*06
$GPZDA,075211,,,,00,*48
$IIDBT,048.35,f,014.74,M,007.96,F*25
$GPGLL,6011.725,N,02526.887,E,075211,A,D*40
$GPGSV,,,,,,,,,,,,,,,,,,,*79
$IIHDM,,M*0C
$IIHDT,,T*0C
$IIMWD,,,,,03.88,N,02.00,M*5C
$IIVDR,,,,,,N*0E
$IIVHW,,T,,M,06.09,N,11.27,K*5F
$IIVPW,2.94,N,,*0E
$IIVTG,258.37,T,258.37,M,6.10,N,,,D*63
$IIMWV,336,R,08.74,N,A*2E
$IIVWT,062,L,04.00,N,02.06,M,,*2E
$IIHDT,,T*0C
$GPWCV,,N,,D*5F
$GPXTE,A,A,,R,N,D*06
$GPZDA,075213,,,,00,*4A
$IIDBT,048.16,f,014.68,M,007.93,F*2C
$GPGLL,6011.724,N,02526.881,E,075214,A,D*42
$GPGSV,,,,,,,,,,,,,,,,,,,*79
$IIHDM,,M*0C
$IIHDT,,T*0C
$IIMWD,,,,,04.14,N,02.13,M*5C
$IIVDR,,,,,,N*0E
$IIVHW,,T,,M,06.08,N,11.26,K*5F
$IIVPW,2.66,N,,*03
$IIVTG,258.69,T,258.69,M,6.05,N,,,D*67
$IIMWV,298,T,03.98,N,A*24
$IIVWT,062,L,03.98,N,02.05,M,,*2B
$IIHDT,,T*0C
$GPWCV,,N,,D*5F
$GPXTE,A,A,,R,N,D*06
$GPZDA,075215,,,,00,*4C
$IIDBT,048.68,f,014.84,M,008.02,F*20
$GPGLL,6011.723,N,02526.874,E,075216,A,D*4D
$GPGSV,,,,,,,,,,,,,,,,,,,*79
$IIHDM,,M*0C
$IIHDT,,T*0C
$IIMWD,,,,,03.63,N,01.87,M*55
$IIVDR,,,,,,N*0E
$IIVHW,,T,,M,06.08,N,11.26,K*5F
$IIVPW,2.68,N,,*0D
$IIVTG,261.37,T,261.37,M,6.06,N,,,D*64
$IIMWV,335,R,08.74,N,A*2D
$IIVWT,064,L,04.15,N,02.14,M,,*2F
$IIHDT,,T*0C
$GPWCV,,N,,D*5F
$GPXTE,A,A,,R,N,D*06
$GPZDA,075217,,,,00,*4E
$IIDBT,049.47,f,015.08,M,008.15,F*2F
$GPGLL,6011.723,N,02526.868,E,075218,A,D*4E
$GPGSV,,,,,,,,,,,,,,,,,,,*79
$IIHDM,,M*0C
$IIHDT,,T*0C
$IIMWD,,,,,04.45,N,02.29,M*51
$IIVDR,,,,,,N*0E
$IIVHW,,T,,M,06.08,N,11.26,K*5F
$IIVPW,2.36,N,,*06
$IIVTG,259.92,T,259.92,M,6.02,N,,,D*60
$IIMWV,296,T,04.14,N,A*29
$IIVWT,065,L,04.14,N,02.13,M,,*28
$IIHDT,,T*0C
$GPWCV,,N,,D*5F
$GPXTE,A,A,,R,N,D*06
$GPZDA,075219,,,,00,*40
$IIDBT,051.47,f,015.69,M,008.48,F*29
$GPGLL,6011.722,N,02526.861,E,075220,A,D*4D
$GPGSV,,,,,,,,,,,,,,,,,,,*79
$IIHDM,,M*0C
$IIHDT,,T*0C
$IIMWD,,,,,03.98,N,02.05,M*58
$IIVDR,,,,,,N*0E
$IIVHW,,T,,M,06.08,N,11.26,K*5F
$IIVPW,2.76,N,,*02
$IIVTG,258.95,T,258.95,M,6.05,N,,,D*67
$IIMWV,337,R,08.74,N,A*2F
$IIVWT,060,L,03.96,N,02.04,M,,*26
$IIHDT,,T*0C
$GPWCV,,N,,D*5F
$GPXTE,A,A,,R,N,D*06
$GPZDA,075221,,,,00,*4B
$IIDBT,053.44,f,016.29,M,008.80,F*2B
$GPGLL,6011.722,N,02526.855,E,075222,A,D*48
$GPGSV,,,,,,,,,,,,,,,,,,,*79
$IIHDM,,M*0C
$IIHDT,,T*0C
$IIMWD,,,,,04.27,N,02.20,M*5C
$IIVDR,,,,,,N*0E
$IIVHW,,T,,M,06.07,N,11.24,K*52
$IIVPW,2.38,N,,*08
$IIVTG,260.23,T,260.23,M,6.09,N,,,D*6B
$IIMWV,295,T,04.23,N,A*2E
$IIVWT,065,L,04.23,N,02.18,M,,*27
$IIHDT,,T*0C
$GPWCV,,N,,D*5F
$GPXTE,A,A,,R,N,D*06
$GPZDA,075223,,,,00,*49
$IIDBT,054.85,f,016.72,M,009.03,F*25
$GPGLL,6011.721,N,02526.848,E,075224,A,D*41
$GPGSV,,,,,,,,,,,,,,,,,,,*79
$IIHDM,,M*0C
$IIHDT,,T*0C
$IIMWD,,,,,04.29,N,02.21,M*53
$IIVDR,,,,,,N*0E
$IIVHW,,T,,M,06.09,N,11.27,K*5F
$IIVPW,2.72,N,,*06
$IIVTG,259.81,T,259.81,M,6.07,N,,,D*65
$IIMWV,338,R,08.74,N,A*20
$IIVWT,059,L,03.80,N,01.96,M,,*23
$IIHDT,,T*0C
$GPWCV,,N,,D*5F
$GPXTE,A,A,,R,N,D*06
$GPZDA,075226,,,,00,*4C
$IIDBT,056.36,f,017.18,M,009.28,F*2B
$GPGLL,6011.720,N,02526.841,E,075226,A,D*4B
$GPGSV,,,,,,,,,,,,,,,,,,,*79
$IIHDM,,M*0C
$IIHDT,,T*0C
$IIMWD,,,,,03.47,N,01.79,M*52
$IIVDR,,,,,,N*0E
$IIVHW,,T,,M,06.10,N,11.29,K*59
$IIVPW,3.60,N,,*04
$IIVTG,260.05,T,260.05,M,6.04,N,,,D*66
$IIMWV,304,T,03.67,N,A*20
$IIVWT,056,L,03.67,N,01.89,M,,*2B
$IIHDT,,T*0C
$GPWCV,,N,,D*5F
$GPXTE,A,A,,R,N,D*06
$GPZDA,075228,,,,00,*42
$IIDBT,056.88,f,017.34,M,009.37,F*2E
$GPGLL,6011.720,N,02526.835,E,075228,A,D*46
$GPGSV,,,,,,,,,,,,,,,,,,,*79
$IIHDM,,M*0C
$IIHDT,,T*0C
$IIMWD,,,,,03.82,N,01.97,M*5B
$IIVDR,,,,,,N*0E
$IIVHW,,T,,M,06.09,N,11.27,K*5F
$IIVPW,3.53,N,,*04
$IIVTG,258.61,T,258.61,M,6.06,N,,,D*64
$IIMWV,340,R,09.13,N,A*2F
$IIVWT,052,L,04.02,N,02.07,M,,*2E
$IIHDT,,T*0C
$GPWCV,,N,,D*5F
$GPXTE,A,A,,R,N,D*06
$GPZDA,075230,,,,00,*4B
$IIDBT,057.34,f,017.48,M,009.44,F*27
$GPGLL,6011.719,N,02526.828,E,075230,A,D*49
$GPGSV,,,,,,,,,,,,,,,,,,,*79
$IIHDM,,M*0C
$IIHDT,,T*0C
$IIMWD,,,,,04.60,N,02.37,M*59
$IIVDR,,,,,,N*0E
$IIVHW,,T,,M,06.08,N,11.26,K*5F
$IIVPW,3.45,N,,*03
$IIVTG,257.98,T,257.98,M,6.09,N,,,D*6B
$IIMWV,304,T,04.17,N,A*20
$IIVWT,056,L,04.17,N,02.15,M,,*2D
$IIHDT,,T*0C
$GPWCV,,N,,D*5F
$GPXTE,A,A,,R,N,D*06
$GPZDA,075232,,,,00,*49
$IIDBT,057.51,f,017.53,M,009.47,F*2D
$GPGLL,6011.718,N,02526.818,E,075232,A,D*49
$GPGSV,,,,,,,,,,,,,,,,,,,*79
$IIHDM,,M*0C
$IIHDT,,T*0C
$IIMWD,,,,,04.02,N,02.07,M*5E
$IIVDR,,,,,,N*0E
$IIVHW,,T,,M,06.09,N,11.27,K*5F
$IIVPW,3.64,N,,*00
$IIVTG,255.91,T,255.91,M,6.02,N,,,D*60
$IIMWV,339,R,09.13,N,A*21
$IIVWT,053,L,04.02,N,02.07,M,,*2F
$IIHDT,,T*0C
$GPWCV,,N,,D*5F
$GPXTE,A,A,,R,N,D*06
$GPZDA,075234,,,,00,*4F
$IIDBT,057.47,f,017.52,M,009.47,F*2B
$GPGLL,6011.717,N,02526.812,E,075234,A,D*4A
$GPGSV,,,,,,,,,,,,,,,,,,,*79
$IIHDM,,M*0C
$IIHDT,,T*0C
$IIMWD,,,,,04.31,N,02.22,M*59
$IIVDR,,,,,,N*0E
$IIVHW,,T,,M,06.09,N,11.27,K*5F
$IIVPW,4.04,N,,*01
$IIVTG,255.40,T,255.40,M,6.01,N,,,D*63
$IIMWV,310,T,04.41,N,A*26
$IIVWT,050,L,04.41,N,02.27,M,,*29
$IIHDT,,T*0C
$GPWCV,,N,,D*5F
$GPXTE,A,A,,R,N,D*06
$GPZDA,075236,,,,00,*4D
$IIDBT,057.64,f,017.57,M,009.49,F*21
$GPGLL,6011.716,N,02526.805,E,075236,A,D*4F
$GPGSV,,,,,,,,,,,,,,,,,,,*79
$IIHDM,,M*0C
$IIHDT,,T*0C
$IIMWD,,,,,04.78,N,02.46,M*56
$IIVDR,,,,,,N*0E
$IIVHW,,T,,M,06.09,N,11.27,K*5F
$IIVPW,3.21,N,,*01
$IIVTG,255.25,T,255.25,M,6.00,N,,,D*62
$IIMWV,337,R,09.13,N,A*2F
$IIVWT,056,L,04.25,N,02.19,M,,*20
$IIHDT,,T*0C
$GPWCV,,N,,D*5F
$GPXTE,A,A,,R,N,D*06
$GPZDA,075238,,,,00,*43
$IIDBT,057.77,f,017.61,M,009.51,F*2F
$GPGLL,6011.715,N,02526.799,E,075238,A,D*48
$GPGSV,,,,,,,,,,,,,,,,,,,*79
$IIHDM,,M*0C
$IIHDT,,T*0C
$IIMWD,,,,,04.29,N,02.21,M*53
$IIVDR,,,,,,N*0E
$IIVHW,,T,,M,06.08,N,11.26,K*5F
$IIVPW,3.53,N,,*04
$IIVTG,255.11,T,255.11,M,6.00,N,,,D*62
$IIMWV,298,T,04.52,N,A*25
$IIVWT,062,L,04.52,N,02.33,M,,*2F
$IIHDT,,T*0C
$GPWCV,,N,,D*5F
$GPXTE,A,A,,R,N,D*06
$GPZDA,075240,,,,00,*4C
$IIDBT,057.83,f,017.63,M,009.52,F*25
$GPGLL,6011.714,N,02526.793,E,075240,A,D*4C
$GPGSV,,,,,,,,,,,,,,,,,,,*79
$IIHDM,,M*0C
$IIHDT,,T*0C
$IIMWD,,,,,04.15,N,02.14,M*5A
$IIVDR,,,,,,N*0E
$IIVHW,,T,,M,06.07,N,11.24,K*52
$IIVPW,3.26,N,,*06
$IIVTG,255.20,T,255.20,M,6.00,N,,,D*62
$IIMWV,335,R,09.13,N,A*2D
$IIVWT,061,L,04.35,N,02.24,M,,*2B
$IIHDT,,T*0C
$GPWCV,,N,,D*5F
$GPXTE,A,A,,R,N,D*06
$GPZDA,075242,,,,00,*4E
$IIDBT,057.80,f,017.62,M,009.52,F*27
$GPGLL,6011.714,N,02526.786,E,075242,A,D*4A
$GPGSV,,,,,,,,,,,,,,,,,,,*79
$IIHDM,,M*0C
$IIHDT,,T*0C
$IIMWD,,,,,04.58,N,02.36,M*53
$IIVDR,,,,,,N*0E
$IIVHW,,T,,M,06.09,N,11.27,K*5F
$IIVPW,3.42,N,,*04
$IIVTG,255.55,T,255.55,M,6.00,N,,,D*62
$IIMWV,307,T,04.47,N,A*26
$IIVWT,053,L,04.47,N,02.30,M,,*2A
$IIHDT,,T*0C
$GPWCV,,N,,D*5F
$GPXTE,A,A,,R,N,D*06
$GPZDA,075244,,,,00,*48
$IIDBT,058.06,f,017.70,M,009.56,F*21
$GPGLL,6011.713,N,02526.779,E,075244,A,D*4B
$GPGSV,,,,,,,,,,,,,,,,,,,*79
$IIHDM,,M*0C
$IIHDT,,T*0C
$IIMWD,,,,,04.47,N,02.30,M*5B
$IIVDR,,,,,,N*0E
$IIVHW,,T,,M,06.07,N,11.24,K*52
$IIVPW,3.67,N,,*03
$IIVTG,256.01,T,256.01,M,6.08,N,,,D*6A
$IIMWV,338,R,09.52,N,A*25
$IIVWT,053,L,04.52,N,02.33,M,,*2D
$IIHDT,,T*0C
$GPWCV,,N,,D*5F
$GPXTE,A,A,,R,N,D*06
$GPZDA,075246,,,,00,*4A
$IIDBT,058.13,f,017.72,M,009.57,F*26
$GPGLL,6011.712,N,02526.773,E,075246,A,D*42
$GPGSV,,,,,,,,,,,,,,,,,,,*79
$IIHDM,,M*0C
$IIHDT,,T*0C
$IIMWD,,,,,04.78,N,02.46,M*56
$IIVDR,,,,,,N*0E
$IIVHW,,T,,M,06.06,N,11.22,K*55
$IIVPW,3.39,N,,*08
$IIVTG,255.41,T,255.41,M,6.09,N,,,D*6B
$IIMWV,304,T,04.64,N,A*24
$IIVWT,056,L,04.64,N,02.39,M,,*27
$IIHDT,,T*0C
$GPWCV,,N,,D*5F
$GPXTE,A,A,,R,N,D*06
$GPZDA,075248,,,,00,*44
$IIDBT,058.20,f,017.74,M,009.58,F*2F
$GPGLL,6011.711,N,02526.766,E,075248,A,D*4B
$GPGSV,,,,,,,,,,,,,,,,,,,*79
$IIHDM,,M*0C
$IIHDT,,T*0C
$IIMWD,,,,,04.08,N,02.10,M*52
$IIVDR,,,,,,N*0E
$IIVHW,,T,,M,06.08,N,11.26,K*5F
$IIVPW,4.19,N,,*0D
$IIVTG,254.08,T,254.08,M,6.02,N,,,D*60
$IIMWV,343,R,09.13,N,A*2C
$IIVWT,047,L,03.75,N,01.93,M,,*23
$IIHDT,,T*0C
$GPWCV,,N,,D*5F
$GPXTE,A,A,,R,N,D*06
$GPZDA,075250,,,,00,*4D
$IIDBT,058.00,f,017.68,M,009.55,F*2D
$GPGLL,6011.710,N,02526.760,E,075250,A,D*45
$GPGSV,,,,,,,,,,,,,,,,,,,*79
$IIHDM,,M*0C
$IIHDT,,T*0C
$IIMWD,,,,,04.43,N,02.28,M*56
$IIVDR,,,,,,N*0E
$IIVHW,,T,,M,06.09,N,11.27,K*5F
$IIVPW,3.42,N,,*04
$IIVTG,254.14,T,254.14,M,6.01,N,,,D*63
$IIMWV,304,T,04.72,N,A*23
$IIVWT,056,L,04.72,N,02.43,M,,*2D
$IIHDT,,T*0C
$GPWCV,,N,,D*5F
$GPXTE,A,A,,R,N,D*06
$GPZDA,075252,,,,00,*4F
$IIDBT,058.10,f,017.71,M,009.57,F*26
$GPGLL,6011.709,N,02526.754,E,075252,A,D*48
$GPGSV,,,,,,,,,,,,,,,,,,,*79
$IIHDM,,M*0C
$IIHDT,,T*0C
$IIMWD,,,,,04.00,N,02.06,M*5D
$IIVDR,,,,,,N*0E
$IIVHW,,T,,M,06.08,N,11.26,K*5F
$IIVPW,4.14,N,,*00
$IIVTG,254.51,T,254.51,M,6.00,N,,,D*62
$IIMWV,343,R,09.52,N,A*29
$IIVWT,042,L,04.08,N,02.10,M,,*23
$IIHDT,,T*0C
$GPWCV,,N,,D*5F
$GPXTE,A,A,,R,N,D*06
$GPZDA,075254,,,,00,*49
$IIDBT,057.93,f,017.66,M,009.54,F*27
$GPGLL,6011.708,N,02526.747,E,075254,A,D*4D
$GPGSV,,,,,,,,,,,,,,,,,,,*79
$IIHDM,,M*0C
$IIHDT,,T*0C
$IIMWD,,,,,03.55,N,01.83,M*54
$IIVDR,,,,,,N*0E
$IIVHW,,T,,M,06.08,N,11.26,K*5F
$IIVPW,4.64,N,,*07
$IIVTG,255.40,T,255.40,M,6.00,N,,,D*62
$IIMWV,315,T,03.80,N,A*29
$IIVWT,045,L,03.80,N,01.96,M,,*2E
$IIHDT,,T*0C
$GPWCV,,N,,D*5F
$GPXTE,A,A,,R,N,D*06
$GPZDA,075256,,,,00,*4B
$IIDBT,057.87,f,017.64,M,009.53,F*27
$GPGLL,6011.707,N,02526.741,E,075257,A,D*47
$GPGSV,,,,,,,,,,,,,,,,,,,*79
$IIHDM,,M*0C
$IIHDT,,T*0C
$IIMWD,,,,,04.50,N,02.32,M*5F
$IIVDR,,,,,,N*0E
$IIVHW,,T,,M,06.06,N,11.22,K*55
$IIVPW,4.24,N,,*03
$IIVTG,256.12,T,256.12,M,6.08,N,,,D*6A
$IIMWV,338,R,09.52,N,A*25
$IIVWT,053,L,04.45,N,02.29,M,,*20
$IIHDT,,T*0C
$GPWCV,,N,,D*5F
$GPXTE,A,A,,R,N,D*06
$GPZDA,075258,,,,00,*45
$IIDBT,057.83,f,017.63,M,009.52,F*25
$GPGLL,6011.707,N,02526.734,E,075259,A,D*4B
$GPGSV,,,,,,,,,,,,,,,,,,,*79
$IIHDM,,M*0C
$IIHDT,,T*0C
$IIMWD,,,,,04.15,N,02.14,M*5A
$IIVDR,,,,,,N*0E
$IIVHW,,T,,M,06.09,N,11.27,K*5F
$IIVPW,2.99,N,,*03
$IIVTG,256.00,T,256.00,M,6.09,N,,,D*6B
$IIMWV,298,T,04.45,N,A*23
$IIVWT,062,L,04.45,N,02.29,M,,*22
$IIHDT,,T*0C
$GPWCV,,N,,D*5F
$GPXTE,A,A,,R,N,D*06
$GPZDA,075300,,,,00,*49
$IIDBT,057.57,f,017.55,M,009.48,F*22
$GPGLL,6011.706,N,02526.727,E,075301,A,D*44
$GPGSV,,,,,,,,,,,,,,,,,,,*79
$IIHDM,,M*0C
$IIHDT,,T*0C
$IIMWD,,,,,04.52,N,02.33,M*5C
$IIVDR,,,,,,N*0E
$IIVHW,,T,,M,06.10,N,11.29,K*59
$IIVPW,3.45,N,,*03
$IIVTG,256.10,T,256.10,M,6.10,N,,,D*63
$IIMWV,336,R,09.52,N,A*2B
$IIVWT,055,L,04.68,N,02.41,M,,*27
$IIHDT,,T*0C
$GPWCV,,N,,D*5F
$GPXTE,A,A,,R,N,D*06
$GPZDA,075302,,,,00,*4B
$IIDBT,057.64,f,017.57,M,009.49,F*21
$GPGLL,6011.705,N,02526.721,E,075303,A,D*43
$GPGSV,,,,,,,,,,,,,,,,,,,*79
$IIHDM,,M*0C
$IIHDT,,T*0C
$IIMWD,,,,,04.70,N,02.42,M*5A
$IIVDR,,,,,,N*0E
$IIVHW,,T,,M,06.06,N,11.22,K*55
$IIVPW,3.08,N,,*0A
$IIVTG,255.93,T,255.93,M,6.02,N,,,D*60
$IIMWV,302,T,04.35,N,A*26
$IIVWT,058,L,04.35,N,02.24,M,,*21
$IIHDT,,T*0C
$GPWCV,,N,,D*5F
$GPXTE,A,A,,R,N,D*06
$GPZDA,075304,,,,00,*4D
$IIDBT,057.61,f,017.56,M,009.49,F*25
$GPGLL,6011.704,N,02526.714,E,075305,A,D*42
$GPGSV,,,,,,,,,,,,,,,,,,,*79
$IIHDM,,M*0C
$IIHDT,,T*0C
$IIMWD,,,,,04.15,N,02.14,M*5A
$IIVDR,,,,,,N*0E
$IIVHW,,T,,M,06.08,N,11.26,K*5F
$IIVPW,2.76,N,,*02
$IIVTG,255.95,T,255.95,M,6.01,N,,,D*63
$IIMWV,332,R,09.13,N,A*2A
$IIVWT,064,L,04.78,N,02.46,M,,*23
$IIHDT,,T*0C
$GPWCV,,N,,D*5F
$GPXTE,A,A,,R,N,D*06
$GPZDA,075306,,,,00,*4F
$IIDBT,057.54,f,017.54,M,009.48,F*20
$GPGLL,6011.703,N,02526.708,E,075307,A,D*4A
$GPGSV,,,,,,,,,,,,,,,,,,,*79
$IIHDM,,M*0C
$IIHDT,,T*0C
$IIMWD,,,,,04.52,N,02.33,M*5C
$IIVDR,,,,,,N*0E
$IIVHW,,T,,M,06.07,N,11.24,K*52
$IIVPW,3.03,N,,*01
$IIVTG,255.84,T,255.84,M,6.00,N,,,D*62
$IIMWV,298,T,04.56,N,A*21
$IIVWT,062,L,04.56,N,02.35,M,,*2D
$IIHDT,,T*0C
$GPWCV,,N,,D*5F
$GPXTE,A,A,,R,N,D*06
$GPZDA,075309,,,,00,*40
$IIDBT,057.54,f,017.54,M,009.48,F*20
$GPGLL,6011.702,N,02526.701,E,075309,A,D*4C
$GPGSV,,,,,,,,,,,,,,,,,,,*79
$IIHDM,,M*0C
$IIHDT,,T*0C
$IIMWD,,,,,04.58,N,02.36,M*53
$IIVDR,,,,,,N*0E
$IIVHW,,T,,M,06.07,N,11.24,K*52
$IIVPW,1.89,N,,*01
$IIVTG,257.56,T,257.56,M,6.03,N,,,D*61
$IIMWV,330,R,08.74,N,A*28
$IIVWT,072,L,04.64,N,02.39,M,,*21
$IIHDT,,T*0C
$GPWCV,,N,,D*5F
$GPXTE,A,A,,R,N,D*06
$GPZDA,075311,,,,00,*49
$IIDBT,057.38,f,017.49,M,009.45,F*2B
$GPGLL,6011.702,N,02526.695,E,075311,A,D*49
$GPGSV,,,,,,,,,,,,,,,,,,,*79
$IIHDM,,M*0C
$IIHDT,,T*0C
$IIMWD,,,,,04.58,N,02.36,M*53
$IIVDR,,,,,,N*0E
$IIVHW,,T,,M,06.07,N,11.24,K*52
$IIVPW,1.96,N,,*0F
$IIVTG,259.89,T,259.89,M,6.01,N,,,D*63
$IIMWV,291,T,04.45,N,A*2A
$IIVWT,069,L,04.45,N,02.29,M,,*29
$IIHDT,,T*0C
$GPWCV,,N,,D*5F
$GPXTE,A,A,,R,N,D*06
$GPZDA,075313,,,,00,*4B
$IIDBT,057.24,f,017.45,M,009.43,F*2C
$GPGLL,6011.701,N,02526.685,E,075313,A,D*49
$GPGSV,,,,,,,,,,,,,,,,,,,*79
$IIHDM,,M*0C
$IIHDT,,T*0C
$IIMWD,,,,,03.82,N,01.97,M*5B
$IIVDR,,,,,,N*0E
$IIVHW,,T,,M,06.08,N,11.26,K*5F
$IIVPW,2.86,N,,*0D
$IIVTG,262.77,T,262.77,M,6.03,N,,,D*61
$IIMWV,338,R,08.55,N,A*23
$IIVWT,060,L,03.77,N,01.94,M,,*23
$IIHDT,,T*0C
$GPWCV,,N,,D*5F
$GPXTE,A,A,,R,N,D*06
$GPZDA,075315,,,,00,*4D
$IIDBT,056.98,f,017.37,M,009.38,F*23
$GPGLL,6011.701,N,02526.678,E,075315,A,D*4D
$GPGSV,,,,,,,,,,,,,,,,,,,*79
$IIHDM,,M*0C
$IIHDT,,T*0C
$IIMWD,,,,,04.15,N,02.14,M*5A
$IIVDR,,,,,,N*0E
$IIVHW,,T,,M,06.07,N,11.24,K*52
$IIVPW,2.91,N,,*0B
$IIVTG,267.00,T,267.00,M,6.00,N,,,D*62
$IIMWV,297,T,04.14,N,A*28
$IIVWT,064,L,04.14,N,02.13,M,,*29
$IIHDT,,T*0C
$GPWCV,,N,,D*5F
$GPXTE,A,A,,R,N,D*06
$GPZDA,075317,,,,00,*4F
$IIDBT,056.78,f,017.31,M,009.35,F*26
$GPGLL,6011.701,N,02526.671,E,075317,A,D*46
$GPGSV,,,,,,,,,,,,,,,,,,,*79
$IIHDM,,M*0C
$IIHDT,,T*0C
$IIMWD,,,,,04.41,N,02.27,M*5B
$IIVDR,,,,,,N*0E
$IIVHW,,T,,M,06.07,N,11.24,K*52
$IIVPW,3.08,N,,*0A
$IIVTG,267.35,T,267.35,M,6.03,N,,,D*61
$IIMWV,336,R,08.74,N,A*2E
$IIVWT,061,L,03.96,N,02.04,M,,*27
$IIHDT,,T*0C
$GPWCV,,N,,D*5F
$GPXTE,A,A,,R,N,D*06
$GPZDA,075319,,,,00,*41
$IIDBT,056.23,f,017.14,M,009.26,F*2D
$GPGLL,6011.701,N,02526.665,E,075319,A,D*4D
$GPGSV,,,,,,,,,,,,,,,,,,,*79
$IIHDM,,M*0C
$IIHDT,,T*0C
$IIMWD,,,,,04.00,N,02.06,M*5D
$IIVDR,,,,,,N*0E
$IIVHW,,T,,M,06.08,N,11.26,K*5F
$IIVPW,3.34,N,,*05
$IIVTG,268.08,T,268.08,M,6.13,N,,,D*60
$IIMWV,303,T,03.63,N,A*23
$IIVWT,057,L,03.63,N,01.87,M,,*20
$IIHDT,,T*0C
$GPWCV,,N,,D*5F
$GPXTE,A,A,,R,N,D*06
$GPZDA,075321,,,,00,*4A
$IIDBT,055.80,f,017.01,M,009.19,F*2F
$GPGLL,6011.701,N,02526.658,E,075321,A,D*48
$GPGSV,,,,,,,,,,,,,,,,,,,*79
$IIHDM,,M*0C
$IIHDT,,T*0C
$IIMWD,,,,,03.90,N,02.01,M*54
$IIVDR,,,,,,N*0E
$IIVHW,,T,,M,06.10,N,11.29,K*59
$IIVPW,3.00,N,,*02
$IIVTG,267.80,T,267.80,M,6.11,N,,,D*62
$IIMWV,336,R,08.74,N,A*2E
$IIVWT,062,L,04.04,N,02.08,M,,*24
$IIHDT,,T*0C
$GPWCV,,N,,D*5F
$GPXTE,A,A,,R,N,D*06
$GPZDA,075323,,,,00,*48
$IIDBT,055.34,f,016.87,M,009.11,F*27
$GPGLL,6011.700,N,02526.651,E,075323,A,D*42
$GPGSV,,,,,,,,,,,,,,,,,,,*79
$IIHDM,,M*0C
$IIHDT,,T*0C
$IIMWD,,,,,03.79,N,01.95,M*5D
$IIVDR,,,,,,N*0E
$IIVHW,,T,,M,06.12,N,11.33,K*50
$IIVPW,2.93,N,,*09
$IIVTG,267.80,T,267.80,M,6.10,N,,,D*63
$IIMWV,302,T,03.82,N,A*2D
$IIVWT,059,L,03.82,N,01.97,M,,*20
$IIHDT,,T*0C
$GPWCV,,N,,D*5F
$GPXTE,A,A,,R,N,D*06
$GPZDA,075325,,,,00,*4E
$IIDBT,054.85,f,016.72,M,009.03,F*25
$GPGLL,6011.700,N,02526.644,E,075325,A,D*40
$GPGSV,,,,,,,,,,,,,,,,,,,*79
$IIHDM,,M*0C
$IIHDT,,T*0C
$IIMWD,,,,,04.12,N,02.12,M*5B
$IIVDR,,,,,,N*0E
$IIVHW,,T,,M,06.08,N,11.26,K*5F
$IIVPW,2.84,N,,*0F
$IIVTG,267.65,T,267.65,M,6.05,N,,,D*67
$IIMWV,337,R,08.74,N,A*2F
$IIVWT,060,L,03.98,N,02.05,M,,*29
$IIHDT,,T*0C
$GPWCV,,N,,D*5F
$GPXTE,A,A,,R,N,D*06
$GPZDA,075327,,,,00,*4C
$IIDBT,054.65,f,016.66,M,009.00,F*2D
$GPGLL,6011.700,N,02526.638,E,075327,A,D*49
$GPGSV,,,,,,,,,,,,,,,,,,,*79
$IIHDM,,M*0C
$IIHDT,,T*0C
$IIMWD,,,,,03.69,N,01.90,M*59
$IIVDR,,,,,,N*0E
$IIVHW,,T,,M,06.08,N,11.26,K*5F
$IIVPW,3.06,N,,*04
$IIVTG,267.36,T,267.36,M,6.06,N,,,D*64
$IIMWV,301,T,03.59,N,A*28
$IIVWT,059,L,03.59,N,01.85,M,,*25
$IIHDT,,T*0C
$GPWCV,,N,,D*5F
$GPXTE,A,A,,R,N,D*06
$GPZDA,075329,,,,00,*42
$IIDBT,054.36,f,016.57,M,008.95,F*24
$GPGLL,6011.700,N,02526.631,E,075329,A,D*4E
$GPGSV,,,,,,,,,,,,,,,,,,,*79
$IIHDM,,M*0C
$IIHDT,,T*0C
$IIMWD,,,,,03.59,N,01.85,M*5E
$IIVDR,,,,,,N*0E
$IIVHW,,T,,M,06.10,N,11.29,K*59
$IIVPW,3.15,N,,*06
$IIVTG,268.01,T,268.01,M,6.09,N,,,D*6B
$IIMWV,338,R,08.74,N,A*20
$IIVWT,059,L,03.90,N,02.01,M,,*2F
$IIHDT,,T*0C
$GPWCV,,N,,D*5F
$GPXTE,A,A,,R,N,D*06
$GPZDA,075331,,,,00,*4B
$IIDBT,054.32,f,016.56,M,008.95,F*21
$GPGLL,6011.700,N,02526.624,E,075331,A,D*43
$GPGSV,,,,,,,,,,,,,,,,,,,*79
$IIHDM,,M*0C
$IIHDT,,T*0C
$IIMWD,,,,,04.14,N,02.13,M*5C
$IIVDR,,,,,,N*0E
$IIVHW,,T,,M,06.07,N,11.24,K*52
$IIVPW,3.43,N,,*05
$IIVTG,267.68,T,267.68,M,6.10,N,,,D*63
$IIMWV,303,T,03.80,N,A*2E
$IIVWT,057,L,03.80,N,01.96,M,,*2D
$IIHDT,,T*0C
$GPWCV,,N,,D*5F
$GPXTE,A,A,,R,N,D*06
$GPZDA,075333,,,,00,*49
$IIDBT,054.19,f,016.52,M,008.92,F*2B
$GPGLL,6011.700,N,02526.617,E,075333,A,D*41
$GPGSV,,,,,,,,,,,,,,,,,,,*79
$IIHDM,,M*0C
$IIHDT,,T*0C
$IIMWD,,,,,03.88,N,02.00,M*5C
$IIVDR,,,,,,N*0E
$IIVHW,,T,,M,06.06,N,11.22,K*55
$IIVPW,3.15,N,,*06
$IIVTG,266.95,T,266.95,M,6.02,N,,,D*60
$IIMWV,336,R,08.74,N,A*2E
$IIVWT,061,L,04.08,N,02.10,M,,*22
$IIHDT,,T*0C
$GPWCV,,N,,D*5F
$GPXTE,A,A,,R,N,D*06
$GPZDA,075335,,,,00,*4F
$IIDBT,054.06,f,016.48,M,008.90,F*2C
$GPGLL,6011.699,N,02526.611,E,075335,A,D*40
$GPGSV,,,,,,,,,,,,,,,,,,,*79
$IIHDM,,M*0C
$IIHDT,,T*0C
$IIMWD,,,,,04.08,N,02.10,M*52
$IIVDR,,,,,,N*0E
$IIVHW,,T,,M,06.06,N,11.22,K*55
$IIVPW,2.73,N,,*07
$IIVTG,266.66,T,266.66,M,6.01,N,,,D*63
$IIMWV,299,T,04.08,N,A*2B
$IIVWT,061,L,04.08,N,02.10,M,,*22
$IIHDT,,T*0C
$GPWCV,,N,,D*5F
$GPXTE,A,A,,R,N,D*06
$GPZDA,075337,,,,00,*4D
$IIDBT,053.90,f,016.43,M,008.88,F*26
$GPGLL,6011.699,N,02526.604,E,075337,A,D*46
$GPGSV,,,,,,,,,,,,,,,,,,,*79
$IIHDM,,M*0C
$IIHDT,,T*0C
$IIMWD,,,,,03.80,N,01.96,M*58
$IIVDR,,,,,,N*0E
$IIVHW,,T,,M,06.08,N,11.26,K*5F
$IIVPW,2.69,N,,*0C
$IIVTG,267.44,T,267.44,M,6.05,N,,,D*67
$IIMWV,335,R,08.74,N,A*2D
$IIVWT,063,L,04.12,N,02.12,M,,*29
$IIHDT,,T*0C
$GPWCV,,N,,D*5F
$GPXTE,A,A,,R,N,D*06
$GPZDA,075339,,,,00,*43
$IIDBT,053.77,f,016.39,M,008.85,F*2F
$GPGLL,6011.699,N,02526.597,E,075340,A,D*4F
$GPGSV,,,,,,,,,,,,,,,,,,,*79
$IIHDM,,M*0C
$IIHDT,,T*0C
$IIMWD,,,,,04.21,N,02.17,M*5E
$IIVDR,,,,,,N*0E
$IIVHW,,T,,M,06.08,N,11.26,K*5F
$IIVPW,2.68,N,,*0D
$IIVTG,267.13,T,267.13,M,6.09,N,,,D*6B
$IIMWV,305,T,03.57,N,A*22
$IIVWT,055,L,03.57,N,01.84,M,,*26
$IIHDT,,T*0C
$GPWCV,,N,,D*5F
$GPXTE,A,A,,R,N,D*06
$GPZDA,075341,,,,00,*4C
$IIDBT,053.70,f,016.37,M,008.84,F*27
$GPGLL,6011.699,N,02526.590,E,075342,A,D*4A
$GPGSV,,,,,,,,,,,,,,,,,,,*79
$IIHDM,,M*0C
$IIHDT,,T*0C
$IIMWD,,,,,04.02,N,02.07,M*5E
$IIVDR,,,,,,N*0E
$IIVHW,,T,,M,06.05,N,11.20,K*54
$IIVPW,2.47,N,,*00
$IIVTG,267.68,T,267.68,M,6.10,N,,,D*63
$IIMWV,331,R,08.74,N,A*29
$IIVWT,071,L,04.47,N,02.30,M,,*2A
$IIHDT,,T*0C
$GPWCV,,N,,D*5F
$GPXTE,A,A,,R,N,D*06
$GPZDA,075343,,,,00,*4E
$IIDBT,053.57,f,016.33,M,008.82,F*20
$GPGLL,6011.699,N,02526.584,E,075344,A,D*49
$GPGSV,,,,,,,,,,,,,,,,,,,*79
$IIHDM,,M*0C
$IIHDT,,T*0C
$IIMWD,,,,,04.15,N,02.14,M*5A
$IIVDR,,,,,,N*0E
$IIVHW,,T,,M,06.09,N,11.27,K*5F
$IIVPW,2.43,N,,*04
$IIVTG,268.19,T,268.19,M,6.10,N,,,D*63
$IIMWV,295,T,04.21,N,A*2C
$IIVWT,065,L,04.21,N,02.17,M,,*2A
$IIHDT,,T*0C
$GPWCV,,N,,D*5F
$GPXTE,A,A,,R,N,D*06
$GPZDA,075345,,,,00,*48
$IIDBT,053.47,f,016.30,M,008.81,F*21
$GPGLL,6011.699,N,02526.577,E,075346,A,D*47
$GPGSV,,,,,,,,,,,,,,,,,,,*79
$IIHDM,,M*0C
$IIHDT,,T*0C
$IIMWD,,,,,04.00,N,02.06,M*5D
$IIVDR,,,,,,N*0E
$IIVHW,,T,,M,06.06,N,11.22,K*55
$IIVPW,2.75,N,,*01
$IIVTG,268.35,T,268.35,M,6.10,N,,,D*63
$IIMWV,334,R,08.74,N,A*2C
$IIVWT,066,L,04.17,N,02.15,M,,*2E
$IIHDT,,T*0C
$GPWCV,,N,,D*5F
$GPXTE,A,A,,R,N,D*06
$GPZDA,075347,,,,00,*4A
$IIDBT,053.31,f,016.25,M,008.78,F*22
$GPGLL,6011.698,N,02526.570,E,075348,A,D*4F
$GPGSV,,,,,,,,,,,,,,,,,,,*79
$IIHDM,,M*0C
$IIHDT,,T*0C
$IIMWD,,,,,04.12,N,02.12,M*5B
$IIVDR,,,,,,N*0E
$IIVHW,,T,,M,06.06,N,11.22,K*55
$IIVPW,2.32,N,,*02
$IIVTG,267.66,T,267.66,M,6.10,N,,,D*63
$IIMWV,290,T,04.23,N,A*2B
$IIVWT,070,L,04.23,N,02.18,M,,*23
$IIHDT,,T*0C
$GPWCV,,N,,D*5F
$GPXTE,A,A,,R,N,D*06
$GPZDA,075349,,,,00,*44
$IIDBT,053.11,f,016.19,M,008.75,F*22
$GPGLL,6011.698,N,02526.563,E,075350,A,D*44
$GPGSV,,,,,,,,,,,,,,,,,,,*79
$IIHDM,,M*0C
$IIHDT,,T*0C
$IIMWD,,,,,03.79,N,01.95,M*5D
$IIVDR,,,,,,N*0E
$IIVHW,,T,,M,06.07,N,11.24,K*52
$IIVPW,2.64,N,,*01
$IIVTG,266.62,T,266.62,M,6.10,N,,,D*63
$IIMWV,334,R,08.55,N,A*2F
$IIVWT,066,L,04.14,N,02.13,M,,*2B
$IIHDT,,T*0C
$GPWCV,,N,,D*5F
$GPXTE,A,A,,R,N,D*06
$GPZDA,075352,,,,00,*4E
$IIDBT,052.82,f,016.10,M,008.70,F*25
$GPGLL,6011.698,N,02526.557,E,075352,A,D*41
$GPGSV,,,,,,,,,,,,,,,,,,,*79
$IIHDM,,M*0C
$IIHDT,,T*0C
$IIMWD,,,,,04.19,N,02.16,M*54
$IIVDR,,,,,,N*0E
$IIVHW,,T,,M,06.06,N,11.22,K*55
$IIVPW,2.27,N,,*06
$IIVTG,266.61,T,266.61,M,6.10,N,,,D*63
$IIMWV,293,T,04.12,N,A*2A
$IIVWT,067,L,04.12,N,02.12,M,,*2D
$IIHDT,,T*0C
$GPWCV,,N,,D*5F
$GPXTE,A,A,,R,N,D*06
$GPZDA,075354,,,,00,*48
$IIDBT,052.42,f,015.98,M,008.63,F*28
$GPGLL,6011.698,N,02526.550,E,075354,A,D*40
$GPGSV,,,,,,,,,,,,,,,,,,,*79
$IIHDM,,M*0C
$IIHDT,,T*0C
$IIMWD,,,,,03.67,N,01.89,M*5F
$IIVDR,,,,,,N*0E
$IIVHW,,T,,M,06.07,N,11.24,K*52
$IIVPW,2.04,N,,*07
$IIVTG,267.00,T,267.00,M,6.10,N,,,D*63
$IIMWV,333,R,08.16,N,A*2F
$IIVWT,072,L,03.88,N,02.00,M,,*2E
$IIHDT,,T*0C
$GPWCV,,N,,D*5F
$GPXTE,A,A,,R,N,D*06
$GPZDA,075356,,,,00,*4A
$IIDBT,051.67,f,015.75,M,008.51,F*2E
$GPGLL,6011.698,N,02526.540,E,075356,A,D*43
$GPGSV,,,,,,,,,,,,,,,,,,,*79
$IIHDM,,M*0C
$IIHDT,,T*0C
$IIMWD,,,,,03.84,N,01.98,M*52
$IIVDR,,,,,,N*0E
$IIVHW,,T,,M,06.04,N,11.18,K*5E
$IIVPW,2.24,N,,*05
$IIVTG,267.89,T,267.89,M,6.05,N,,,D*67
$IIMWV,294,T,03.92,N,A*22
$IIVWT,066,L,03.92,N,02.02,M,,*22
$IIHDT,,T*0C
$GPWCV,,N,,D*5F
$GPXTE,A,A,,R,N,D*06
$GPZDA,075358,,,,00,*44
$IIDBT,050.32,f,015.34,M,008.29,F*25
$GPGLL,6011.698,N,02526.533,E,075358,A,D*49
$GPGSV,,,,,,,,,,,,,,,,,,,*79
$IIHDM,,M*0C
$IIHDT,,T*0C
$IIMWD,,,,,04.14,N,02.13,M*5C
$IIVDR,,,,,,N*0E
$IIVHW,,T,,M,06.07,N,11.24,K*52
$IIVPW,2.35,N,,*05
$IIVTG,267.42,T,267.42,M,6.01,N,,,D*63
$IIMWV,334,R,08.74,N,A*2C
$IIVWT,065,L,04.23,N,02.18,M,,*27
$IIHDT,,T*0C
$GPWCV,,N,,D*5F
$GPXTE,A,A,,R,N,D*06
$GPZDA,075400,,,,00,*4E
$IIDBT,049.80,f,015.18,M,008.20,F*23
$GPGLL,6011.697,N,02526.526,E,075400,A,D*48
$GPGSV,,,,,,,,,,,,,,,,,,,*79
$IIHDM,,M*0C
$IIHDT,,T*0C
$IIMWD,,,,,04.33,N,02.23,M*5A
$IIVDR,,,,,,N*0E
$IIVHW,,T,,M,06.06,N,11.22,K*55
$IIVPW,2.70,N,,*04
$IIVTG,266.75,T,266.75,M,6.03,N,,,D*61
$IIMWV,295,T,04.23,N,A*2E
$IIVWT,065,L,04.23,N,02.18,M,,*27
$IIHDT,,T*0C
$GPWCV,,N,,D*5F
$GPXTE,A,A,,R,N,D*06
$GPZDA,075402,,,,00,*4C
$IIDBT,049.01,f,014.94,M,008.07,F*2A
$GPGLL,6011.697,N,02526.520,E,075402,A,D*4C
$GPGSV,,,,,,,,,,,,,,,,,,,*79
$IIHDM,,M*0C
$IIHDT,,T*0C
$IIMWD,,,,,04.08,N,02.10,M*52
$IIVDR,,,,,,N*0E
$IIVHW,,T,,M,06.05,N,11.20,K*54
$IIVPW,2.58,N,,*0E
$IIVTG,266.46,T,266.46,M,6.08,N,,,D*6A
$IIMWV,334,R,08.55,N,A*2F
$IIVWT,067,L,04.06,N,02.09,M,,*22
$IIHDT,,T*0C
$GPWCV,,N,,D*5F
$GPXTE,A,A,,R,N,D*06
$GPZDA,075404,,,,00,*4A
$IIDBT,048.94,f,014.92,M,008.06,F*20
$GPGLL,6011.697,N,02526.513,E,075404,A,D*4A
$GPGSV,,,,,,,,,,,,,,,,,,,*79
$IIHDM,,M*0C
$IIHDT,,T*0C
$IIMWD,,,,,04.27,N,02.20,M*5C
$IIVDR,,,,,,N*0E
$IIVHW,,T,,M,06.07,N,11.24,K*52
$IIVPW,1.55,N,,*00
$IIVTG,266.44,T,266.44,M,6.10,N,,,D*63
$IIMWV,285,T,03.96,N,A*26
$IIVWT,076,L,03.96,N,02.04,M,,*21
$IIHDT,,T*0C
$GPWCV,,N,,D*5F
$GPXTE,A,A,,R,N,D*06
$GPZDA,075406,,,,00,*48
$IIDBT,048.98,f,014.93,M,008.07,F*2C
$GPGLL,6011.697,N,02526.506,E,075406,A,D*4C
$GPGSV,,,,,,,,,,,,,,,,,,,*79
$IIHDM,,M*0C
$IIHDT,,T*0C
$IIMWD,,,,,03.80,N,01.96,M*58
$IIVDR,,,,,,N*0E
$IIVHW,,T,,M,06.07,N,11.24,K*52
$IIVPW,1.78,N,,*0F
$IIVTG,266.63,T,266.63,M,6.10,N,,,D*63
$IIMWV,333,R,08.16,N,A*2F
$IIVWT,072,L,03.88,N,02.00,M,,*2E
$IIHDT,,T*0C
$GPWCV,,N,,D*5F
$GPXTE,A,A,,R,N,D*06
$GPZDA,075408,,,,00,*46
$IIDBT,048.62,f,014.82,M,008.01,F*2F
$GPGLL,6011.697,N,02526.499,E,075408,A,D*45
$GPGSV,,,,,,,,,,,,,,,,,,,*79
$IIHDM,,M*0C
$IIHDT,,T*0C
$IIMWD,,,,,04.17,N,02.15,M*59
$IIVDR,,,,,,N*0E
$IIVHW,,T,,M,06.07,N,11.24,K*52
$IIVPW,1.97,N,,*0E
$IIVTG,266.48,T,266.48,M,6.05,N,,,D*67
$IIMWV,286,T,04.06,N,A*2B
$IIVWT,074,L,04.06,N,02.09,M,,*20
$IIHDT,,T*0C
$GPWCV,,N,,D*5F
$GPXTE,A,A,,R,N,D*06
$GPZDA,075410,,,,00,*4F
$IIDBT,048.22,f,014.70,M,007.94,F*25
$GPGLL,6011.696,N,02526.493,E,075410,A,D*47
$GPGSV,,,,,,,,,,,,,,,,,,,*79
$IIHDM,,M*0C
$IIHDT,,T*0C
$IIMWD,,,,,03.92,N,02.02,M*55
$IIVDR,,,,,,N*0E
$IIVHW,,T,,M,06.09,N,11.27,K*5F
$IIVPW,1.64,N,,*02
$IIVTG,265.07,T,265.07,M,6.04,N,,,D*66
$IIMWV,332,R,08.16,N,A*2E
$IIVWT,076,L,03.94,N,02.03,M,,*24
$IIHDT,,T*0C
$GPWCV,,N,,D*5F
$GPXTE,A,A,,R,N,D*06
$GPZDA,075412,,,,00,*4D
$IIDBT,047.50,f,014.48,M,007.82,F*23
$GPGLL,6011.696,N,02526.486,E,075412,A,D*41
$GPGSV,,,,,,,,,,,,,,,,,,,*79
$IIHDM,,M*0C
$IIHDT,,T*0C
$IIMWD,,,,,03.80,N,01.96,M*58
$IIVDR,,,,,,N*0E
$IIVHW,,T,,M,06.11,N,11.31,K*51
$IIVPW,1.86,N,,*0E
$IIVTG,265.17,T,265.17,M,6.06,N,,,D*64
$IIMWV,288,T,03.77,N,A*24
$IIVWT,072,L,03.77,N,01.94,M,,*20
$IIHDT,,T*0C
$GPWCV,,N,,D*5F
$GPXTE,A,A,,R,N,D*06
$GPZDA,075414,,,,00,*4B
$IIDBT,046.68,f,014.23,M,007.69,F*21
$GPGLL,6011.696,N,02526.479,E,075414,A,D*47
$GPGSV,,,,,,,,,,,,,,,,,,,*79
$IIHDM,,M*0C
$IIHDT,,T*0C
$IIMWD,,,,,04.02,N,02.07,M*5E
$IIVDR,,,,,,N*0E
$IIVHW,,T,,M,06.12,N,11.33,K*50
$IIVPW,1.65,N,,*03
$IIVTG,264.99,T,264.99,M,6.09,N,,,D*6B
$IIMWV,331,R,08.16,N,A*2D
$IIVWT,075,L,04.10,N,02.11,M,,*2F
$IIHDT,,T*0C
$GPWCV,,N,,D*5F
$GPXTE,A,A,,R,N,D*06
$GPZDA,075416,,,,00,*49
$IIDBT,044.48,f,013.56,M,007.32,F*2A
$GPGLL,6011.695,N,02526.472,E,075416,A,D*4D
$GPGSV,,,,,,,,,,,,,,,,,,,*79
$IIHDM,,M*0C
$IIHDT,,T*0C
$IIMWD,,,,,03.44,N,01.77,M*5F
$IIVDR,,,,,,N*0E
$IIVHW,,T,,M,06.10,N,11.29,K*59
$IIVPW,1.66,N,,*00
$IIVTG,265.02,T,265.02,M,6.02,N,,,D*60
$IIMWV,284,T,03.30,N,A*2B
$IIVWT,076,L,03.30,N,01.70,M,,*2D
$IIHDT,,T*0C
$GPWCV,,N,,D*5F
$GPXTE,A,A,,R,N,D*06
$GPZDA,075418,,,,00,*47
$IIDBT,044.15,f,013.46,M,007.27,F*27
$GPGLL,6011.695,N,02526.466,E,075418,A,D*46
$GPGSV,,,,,,,,,,,,,,,,,,,*79
$IIHDM,,M*0C
$IIHDT,,T*0C
$IIMWD,,,,,03.67,N,01.89,M*5F
$IIVDR,,,,,,N*0E
$IIVHW,,T,,M,06.10,N,11.29,K*59
$IIVPW,0.67,N,,*00
$IIVTG,266.35,T,266.35,M,6.08,N,,,D*6A
$IIMWV,330,R,07.77,N,A*24
$IIVWT,081,L,03.88,N,02.00,M,,*22
$IIHDT,,T*0C
$GPWCV,,N,,D*5F
$GPXTE,A,A,,R,N,D*06
$GPZDA,075420,,,,00,*4C
$IIDBT,043.86,f,013.37,M,007.22,F*29
$GPGLL,6011.695,N,02526.459,E,075421,A,D*40
$GPGSV,,,,,,,,,,,,,,,,,,,*79
$IIHDM,,M*0C
$IIHDT,,T*0C
$IIMWD,,,,,03.53,N,01.82,M*53
$IIVDR,,,,,,N*0E
$IIVHW,,T,,M,06.11,N,11.31,K*51
$IIVPW,2.22,N,,*03
$IIVTG,265.01,T,265.01,M,6.02,N,,,D*60
$IIMWV,294,T,03.46,N,A*2B
$IIVWT,066,L,03.46,N,01.78,M,,*25
$IIHDT,,T*0C
$GPWCV,,N,,D*5F
$GPXTE,A,A,,R,N,D*06
$GPZDA,075422,,,,00,*4E
$IIDBT,042.87,f,013.07,M,007.06,F*2C
$GPGLL,6011.695,N,02526.452,E,075423,A,D*49
$GPGSV,,,,,,,,,,,,,,,,,,,*79
$IIHDM,,M*0C
$IIHDT,,T*0C
$IIMWD,,,,,03.61,N,01.86,M*56
$IIVDR,,,,,,N*0E
$IIVHW,,T,,M,06.12,N,11.33,K*50
$IIVPW,1.87,N,,*0F
$IIVTG,265.33,T,265.33,M,6.08,N,,,D*6A
$IIMWV,333,R,08.16,N,A*2F
$IIVWT,073,L,03.86,N,01.99,M,,*22
$IIHDT,,T*0C
$GPWCV,,N,,D*5F
$GPXTE,A,A,,R,N,D*06
$GPZDA,075424,,,,00,*48
$IIDBT,040.09,f,012.22,M,006.60,F*2F
$GPGLL,6011.694,N,02526.445,E,075425,A,D*48
$GPGSV,,,,,,,,,,,,,,,,,,,*79
$IIHDM,,M*0C
$IIHDT,,T*0C
$IIMWD,,,,,03.92,N,02.02,M*55
$IIVDR,,,,,,N*0E
$IIVHW,,T,,M,06.10,N,11.29,K*59
$IIVPW,1.60,N,,*06
$IIVTG,265.11,T,265.11,M,6.05,N,,,D*67
$IIMWV,286,T,03.98,N,A*2B
$IIVWT,074,L,03.98,N,02.05,M,,*2C
$IIHDT,,T*0C
$GPWCV,,N,,D*5F
$GPXTE,A,A,,R,N,D*06
$GPZDA,075426,,,,00,*4A
$IIDBT,038.25,f,011.66,M,006.30,F*28
$GPGLL,6011.694,N,02526.439,E,075427,A,D*41
$GPGSV,,,,,,,,,,,,,,,,,,,*79
$IIHDM,,M*0C
$IIHDT,,T*0C
$IIMWD,,,,,03.92,N,02.02,M*55
$IIVDR,,,,,,N*0E
$IIVHW,,T,,M,06.12,N,11.33,K*50
$IIVPW,2.30,N,,*00
$IIVTG,263.93,T,263.93,M,6.09,N,,,D*6B
$IIMWV,334,R,08.55,N,A*2F
$IIVWT,069,L,04.08,N,02.10,M,,*2A
$IIHDT,,T*0C
$GPWCV,,N,,D*5F
$GPXTE,A,A,,R,N,D*06
$GPZDA,075428,,,,00,*44
$IIDBT,037.26,f,011.36,M,006.14,F*27
$GPGLL,6011.694,N,02526.432,E,075429,A,D*44
$GPGSV,,,,,,,,,,,,,,,,,,,*79
$IIHDM,,M*0C
$IIHDT,,T*0C
$IIMWD,,,,,04.29,N,02.21,M*53
$IIVDR,,,,,,N*0E
$IIVHW,,T,,M,06.11,N,11.31,K*51
$IIVPW,2.17,N,,*05
$IIVTG,264.46,T,264.46,M,6.02,N,,,D*60
$IIMWV,291,T,04.27,N,A*2E
$IIVWT,069,L,04.27,N,02.20,M,,*24
$IIHDT,,T*0C
$GPWCV,,N,,D*5F
$GPXTE,A,A,,R,N,D*06
$GPZDA,075430,,,,00,*4D
$IIDBT,035.66,f,010.87,M,005.87,F*23
$GPGLL,6011.694,N,02526.425,E,075431,A,D*4B
$GPGSV,,,,,,,,,,,,,,,,,,,*79
$IIHDM,,M*0C
$IIHDT,,T*0C
$IIMWD,,,,,04.15,N,02.14,M*5A
$IIVDR,,,,,,N*0E
$IIVHW,,T,,M,06.08,N,11.26,K*5F
$IIVPW,1.64,N,,*02
$IIVTG,265.66,T,265.66,M,6.01,N,,,D*63
$IIMWV,332,R,08.16,N,A*2E
$IIVWT,074,L,04.02,N,02.07,M,,*2A
$IIHDT,,T*0C
$GPWCV,,N,,D*5F
$GPXTE,A,A,,R,N,D*06
$GPZDA,075432,,,,00,*4F
$IIDBT,034.05,f,010.38,M,005.61,F*2B
$GPGLL,6011.693,N,02526.418,E,075433,A,D*40
$GPGSV,,,,,,,,,,,,,,,,,,,*79
$IIHDM,,M*0C
$IIHDT,,T*0C
$IIMWD,,,,,04.23,N,02.18,M*53
$IIVDR,,,,,,N*0E
$IIVHW,,T,,M,06.06,N,11.22,K*55
$IIVPW,1.69,N,,*0F
$IIVTG,267.24,T,267.24,M,5.98,N,,,D*60
$IIMWV,285,T,04.62,N,A*2A
$IIVWT,075,L,04.62,N,02.38,M,,*21
$IIHDT,,T*0C
$GPWCV,,N,,D*5F
$GPXTE,A,A,,R,N,D*06
$GPZDA,075435,,,,00,*48
$IIDBT,033.23,f,010.13,M,005.47,F*25
$GPGLL,6011.693,N,02526.412,E,075435,A,D*4C
$GPGSV,,,,,,,,,,,,,,,,,,,*79
$IIHDM,,M*0C
$IIHDT,,T*0C
$IIMWD,,,,,04.27,N,02.20,M*5C
$IIVDR,,,,,,N*0E
$IIVHW,,T,,M,06.07,N,11.24,K*52
$IIVPW,1.65,N,,*03
$IIVTG,268.26,T,268.26,M,5.99,N,,,D*61
$IIMWV,332,R,08.16,N,A*2E
$IIVWT,076,L,04.00,N,02.06,M,,*2B
$IIHDT,,T*0C
$GPWCV,,N,,D*5F
$GPXTE,A,A,,R,N,D*06
$GPZDA,075437,,,,00,*4A
$IIDBT,034.80,f,010.61,M,005.73,F*29
$GPGLL,6011.693,N,02526.405,E,075437,A,D*48
$GPGSV,,,,,,,,,,,,,,,,,,,*79
$IIHDM,,M*0C
$IIHDT,,T*0C
$IIMWD,,,,,03.98,N,02.05,M*58
$IIVDR,,,,,,N*0E
$IIVHW,,T,,M,06.07,N,11.24,K*52
$IIVPW,1.72,N,,*05
$IIVTG,269.17,T,269.17,M,6.05,N,,,D*67
$IIMWV,288,T,04.39,N,A*29
$IIVWT,072,L,04.39,N,02.26,M,,*27
$IIHDT,,T*0C
$GPWCV,,N,,D*5F
$GPXTE,A,A,,R,N,D*06
$GPZDA,075439,,,,00,*44
$IIDBT,036.18,f,011.03,M,005.96,F*24
$GPGLL,6011.693,N,02526.395,E,075439,A,D*48
$GPGSV,,,,,,,,,,,,,,,,,,,*79
$IIHDM,,M*0C
$IIHDT,,T*0C
$IIMWD,,,,,04.02,N,02.07,M*5E
$IIVDR,,,,,,N*0E
$IIVHW,,T,,M,06.08,N,11.26,K*5F
$IIVPW,1.77,N,,*00
$IIVTG,267.91,T,267.91,M,6.13,N,,,D*60
$IIMWV,335,R,08.16,N,A*29
$IIVWT,071,L,03.67,N,01.89,M,,*2E
$IIHDT,,T*0C
$GPWCV,,N,,D*5F
$GPXTE,A,A,,R,N,D*06
$GPZDA,075441,,,,00,*4B
$IIDBT,036.12,f,011.01,M,005.95,F*2F
$GPGLL,6011.693,N,02526.388,E,075441,A,D*4B
$GPGSV,,,,,,,,,,,,,,,,,,,*79
$IIHDM,,M*0C
$IIHDT,,T*0C
$IIMWD,,,,,04.15,N,02.14,M*5A
$IIVDR,,,,,,N*0E
$IIVHW,,T,,M,06.10,N,11.29,K*59
$IIVPW,2.12,N,,*00
$IIVTG,266.28,T,266.28,M,6.11,N,,,D*62
$IIMWV,292,T,04.39,N,A*22
$IIVWT,068,L,04.39,N,02.26,M,,*2C
$IIHDT,,T*0C
$GPWCV,,N,,D*5F
$GPXTE,A,A,,R,N,D*06
$GPZDA,075443,,,,00,*49
$IIDBT,038.05,f,011.60,M,006.27,F*2A
$GPGLL,6011.693,N,02526.381,E,075443,A,D*40
$GPGSV,,,,,,,,,,,,,,,,,,,*79
$IIHDM,,M*0C
$IIHDT,,T*0C
$IIMWD,,,,,04.12,N,02.12,M*5B
$IIVDR,,,,,,N*0E
$IIVHW,,T,,M,06.09,N,11.27,K*5F
$IIVPW,2.23,N,,*02
$IIVTG,265.17,T,265.17,M,6.05,N,,,D*67
$IIMWV,332,R,08.55,N,A*29
$IIVWT,071,L,04.29,N,02.21,M,,*22
$IIHDT,,T*0C
$GPWCV,,N,,D*5F
$GPXTE,A,A,,R,N,D*06
$GPZDA,075445,,,,00,*4F
$IIDBT,039.00,f,011.89,M,006.42,F*2A
$GPGLL,6011.692,N,02526.374,E,075445,A,D*4D
$GPGSV,,,,,,,,,,,,,,,,,,,*79
$IIHDM,,M*0C
$IIHDT,,T*0C
$IIMWD,,,,,04.60,N,02.37,M*59
$IIVDR,,,,,,N*0E
$IIVHW,,T,,M,06.09,N,11.27,K*5F
$IIVPW,1.33,N,,*00
$IIVTG,265.67,T,265.67,M,6.04,N,,,D*66
$IIMWV,282,T,04.25,N,A*2E
$IIVWT,078,L,04.25,N,02.19,M,,*2C
$IIHDT,,T*0C
$GPWCV,,N,,D*5F
$GPXTE,A,A,,R,N,D*06
$GPZDA,075447,,,,00,*4D
$IIDBT,039.40,f,012.01,M,006.49,F*26
$GPGLL,6011.692,N,02526.368,E,075447,A,D*42
$GPGSV,,,,,,,,,,,,,,,,,,,*79
$IIHDM,,M*0C
$IIHDT,,T*0C
$IIMWD,,,,,04.54,N,02.34,M*5D
$IIVDR,,,,,,N*0E
$IIVHW,,T,,M,06.08,N,11.26,K*5F
$IIVPW,1.92,N,,*0B
$IIVTG,265.96,T,265.96,M,6.03,N,,,D*61
$IIMWV,328,R,08.74,N,A*21
$IIVWT,073,L,04.82,N,02.48,M,,*2E
$IIHDT,,T*0C
$GPWCV,,N,,D*5F
$GPXTE,A,A,,R,N,D*06
$GPZDA,075449,,,,00,*43
$IIDBT,039.10,f,011.92,M,006.44,F*27
$GPGLL,6011.692,N,02526.361,E,075449,A,D*45
$GPGSV,,,,,,,,,,,,,,,,,,,*79
$IIHDM,,M*0C
$IIHDT,,T*0C
$IIMWD,,,,,03.63,N,01.87,M*55
$IIVDR,,,,,,N*0E
$IIVHW,,T,,M,06.07,N,11.24,K*52
$IIVPW,4.66,N,,*05
$IIVTG,265.54,T,265.54,M,6.03,N,,,D*61
$IIMWV,304,T,04.15,N,A*22
$IIVWT,056,L,04.15,N,02.14,M,,*2E
$IIHDT,,T*0C
$GPWCV,,N,,D*5F
$GPXTE,A,A,,R,N,D*06
$GPZDA,075451,,,,00,*4A
$IIDBT,039.04,f,011.90,M,006.43,F*27
$GPGLL,6011.692,N,02526.354,E,075451,A,D*4A
$GPGSV,,,,,,,,,,,,,,,,,,,*79
$IIHDM,,M*0C
$IIHDT,,T*0C
$IIMWD,,,,,04.04,N,02.08,M*57
$IIVDR,,,,,,N*0E
$IIVHW,,T,,M,06.06,N,11.22,K*55
$IIVPW,3.42,N,,*04
$IIVTG,265.41,T,265.41,M,6.06,N,,,D*64
$IIMWV,329,R,08.74,N,A*20
$IIVWT,074,L,04.76,N,02.45,M,,*2F
$IIHDT,,T*0C
$GPWCV,,N,,D*5F
$GPXTE,A,A,,R,N,D*06
$GPZDA,075453,,,,00,*48
$IIDBT,039.59,f,012.07,M,006.52,F*22
$GPGLL,6011.691,N,02526.347,E,075453,A,D*49
$GPGSV,,,,,,,,,,,,,,,,,,,*79
$IIHDM,,M*0C
$IIHDT,,T*0C
$IIMWD,,,,,04.76,N,02.45,M*5B
$IIVDR,,,,,,N*0E
$IIVHW,,T,,M,06.01,N,11.13,K*50
$IIVPW,1.88,N,,*00
$IIVTG,264.38,T,264.38,M,5.99,N,,,D*61
$IIMWV,266,T,05.55,N,A*22
$IIVWT,094,L,05.55,N,02.86,M,,*2E
$IIHDT,,T*0C
$GPWCV,,N,,D*5F
$GPXTE,A,A,,R,N,D*06
$GPZDA,075455,,,,00,*4E
$IIDBT,039.53,f,012.05,M,006.51,F*29
$GPGLL,6011.691,N,02526.341,E,075455,A,D*49
$GPGSV,,,,,,,,,,,,,,,,,,,*79
$IIHDM,,M*0C
$IIHDT,,T*0C
$IIMWD,,,,,05.20,N,02.68,M*56
$IIVDR,,,,,,N*0E
$IIVHW,,T,,M,06.07,N,11.24,K*52
$IIVPW,0.35,N,,*07
$IIVTG,264.52,T,264.52,M,5.97,N,,,D*6F
$IIMWV,347,R,08.74,N,A*28
$IIVWT,034,L,03.44,N,01.77,M,,*2F
$IIHDT,,T*0C
$GPWCV,,N,,D*5F
$GPXTE,A,A,,R,N,D*06
$GPZDA,075457,,,,00,*4C
$IIDBT,039.04,f,011.90,M,006.43,F*27
$GPGLL,6011.691,N,02526.334,E,075457,A,D*49
$GPGSV,,,,,,,,,,,,,,,,,,,*79
$IIHDM,,M*0C
$IIHDT,,T*0C
$IIMWD,,,,,03.94,N,02.03,M*52
$IIVDR,,,,,,N*0E
$IIVHW,,T,,M,06.06,N,11.22,K*55
$IIVPW,3.18,N,,*0B
$IIVTG,265.66,T,265.66,M,5.99,N,,,D*61
$IIMWV,278,T,05.44,N,A*2D
$IIVWT,082,L,05.44,N,02.80,M,,*2F
$IIHDT,,T*0C
$GPWCV,,N,,D*5F
$GPXTE,A,A,,R,N,D*06
$GPZDA,075459,,,,00,*42
$IIDBT,036.81,f,011.22,M,006.06,F*2D
$GPGLL,6011.691,N,02526.328,E,075459,A,D*4A
$GPGSV,,,,,,,,,,,,,,,,,,,*79
$IIHDM,,M*0C
$IIHDT,,T*0C
$IIMWD,,,,,04.84,N,02.49,M*5A
$IIVDR,,,,,,N*0E
$IIVHW,,T,,M,06.14,N,11.37,K*52
$IIVPW,2.38,N,,*08
$IIVTG,266.39,T,266.39,M,5.90,N,,,D*68
$IIMWV,338,R,09.52,N,A*25
$IIVWT,049,L,04.85,N,02.50,M,,*29
$IIHDT,,T*0C
$GPWCV,,N,,D*5F
$GPXTE,A,A,,R,N,D*06
$GPZDA,075501,,,,00,*4E
$IIDBT,035.62,f,010.86,M,005.87,F*26
$GPGLL,6011.690,N,02526.321,E,075501,A,D*4E
$GPGSV,,,,,,,,,,,,,,,,,,,*79
$IIHDM,,M*0C
$IIHDT,,T*0C
$IIMWD,,,,,04.58,N,02.36,M*53
$IIVDR,,,,,,N*0E
$IIVHW,,T,,M,06.04,N,11.18,K*5E
$IIVPW,1.91,N,,*08
$IIVTG,265.22,T,265.22,M,5.95,N,,,D*6D
$IIMWV,294,T,04.00,N,A*2E
$IIVWT,066,L,04.00,N,02.06,M,,*2A
$IIHDT,,T*0C
$GPWCV,,N,,D*5F
$GPXTE,A,A,,R,N,D*06
$GPZDA,075503,,,,00,*4C
$IIDBT,034.90,f,010.64,M,005.75,F*2B
$GPGLL,6011.690,N,02526.315,E,075504,A,D*4C
$GPGSV,,,,,,,,,,,,,,,,,,,*79
$IIHDM,,M*0C
$IIHDT,,T*0C
$IIMWD,,,,,04.56,N,02.35,M*5E
$IIVDR,,,,,,N*0E
$IIVHW,,T,,M,05.98,N,11.07,K*56
$IIVPW,2.06,N,,*05
$IIVTG,261.60,T,261.60,M,5.94,N,,,D*6C
$IIMWV,330,R,08.74,N,A*28
$IIVWT,070,L,04.72,N,02.43,M,,*29
$IIHDT,,T*0C
$GPWCV,,N,,D*5F
$GPXTE,A,A,,R,N,D*06
$GPZDA,075505,,,,00,*4A
$IIDBT,036.54,f,011.14,M,006.02,F*24
$GPGLL,6011.689,N,02526.308,E,075506,A,D*4A
$GPGSV,,,,,,,,,,,,,,,,,,,*79
$IIHDM,,M*0C
$IIHDT,,T*0C
$IIMWD,,,,,03.51,N,01.81,M*52
$IIVDR,,,,,,N*0E
$IIVHW,,T,,M,05.97,N,11.05,K*5B
$IIVPW,3.35,N,,*04
$IIVTG,261.60,T,261.60,M,5.91,N,,,D*69
$IIMWV,308,T,03.69,N,A*22
$IIVWT,053,L,03.69,N,01.90,M,,*28
$IIHDT,,T*0C
$GPWCV,,N,,D*5F
$GPXTE,A,A,,R,N,D*06
$GPZDA,075507,,,,00,*48
$IIDBT,038.22,f,011.65,M,006.29,F*24
$GPGLL,6011.689,N,02526.302,E,075508,A,D*4E
$GPGSV,,,,,,,,,,,,,,,,,,,*79
$IIHDM,,M*0C
$IIHDT,,T*0C
$IIMWD,,,,,04.23,N,02.18,M*53
$IIVDR,,,,,,N*0E
$IIVHW,,T,,M,05.97,N,11.05,K*5B
$IIVPW,1.83,N,,*0B
$IIVTG,265.00,T,265.00,M,5.98,N,,,D*60
$IIMWV,332,R,08.74,N,A*2A
$IIVWT,068,L,04.50,N,02.32,M,,*26
$IIHDT,,T*0C
$GPWCV,,N,,D*5F
$GPXTE,A,A,,R,N,D*06
$GPZDA,075509,,,,00,*46
$IIDBT,039.17,f,011.94,M,006.45,F*27
$GPGLL,6011.689,N,02526.295,E,075510,A,D*48
$GPGSV,,,,,,,,,,,,,,,,,,,*79
$IIHDM,,M*0C
$IIHDT,,T*0C
$IIMWD,,,,,03.61,N,01.86,M*56
$IIVDR,,,,,,N*0E
$IIVHW,,T,,M,05.97,N,11.05,K*5B
$IIVPW,3.78,N,,*0D
$IIVTG,263.32,T,263.32,M,5.99,N,,,D*61
$IIMWV,306,T,03.47,N,A*20
$IIVWT,055,L,03.47,N,01.79,M,,*25
$IIHDT,,T*0C
$GPWCV,,N,,D*5F
$GPXTE,A,A,,R,N,D*06
$GPZDA,075511,,,,00,*4F
$IIDBT,039.63,f,012.08,M,006.52,F*24
$GPGLL,6011.688,N,02526.288,E,075512,A,D*47
$GPGSV,,,,,,,,,,,,,,,,,,,*79
$IIHDM,,M*0C
$IIHDT,,T*0C
$IIMWD,,,,,03.34,N,01.72,M*5D
$IIVDR,,,,,,N*0E
$IIVHW,,T,,M,05.98,N,11.07,K*56
$IIVPW,3.68,N,,*0C
$IIVTG,262.23,T,262.23,M,6.00,N,,,D*62
$IIMWV,340,R,08.55,N,A*2C
$IIVWT,055,L,03.55,N,01.83,M,,*23
$IIHDT,,T*0C
$GPWCV,,N,,D*5F
$GPXTE,A,A,,R,N,D*06
$GPZDA,075513,,,,00,*4D
$IIDBT,040.09,f,012.22,M,006.60,F*2F
$GPGLL,6011.688,N,02526.282,E,075514,A,D*4B
$GPGSV,,,,,,,,,,,,,,,,,,,*79
$IIHDM,,M*0C
$IIHDT,,T*0C
$IIMWD,,,,,03.88,N,02.00,M*5C
$IIVDR,,,,,,N*0E
$IIVHW,,T,,M,05.99,N,11.09,K*59
$IIVPW,2.98,N,,*02
$IIVTG,261.63,T,261.63,M,6.00,N,,,D*62
$IIMWV,298,T,03.79,N,A*2B
$IIVWT,062,L,03.79,N,01.95,M,,*2E
$IIHDT,,T*0C
$GPWCV,,N,,D*5F
$GPXTE,A,A,,R,N,D*06
$GPZDA,075515,,,,00,*4B
$IIDBT,040.28,f,012.28,M,006.63,F*25
$GPGLL,6011.687,N,02526.275,E,075516,A,D*4E
$GPGSV,,,,,,,,,,,,,,,,,,,*79
$IIHDM,,M*0C
$IIHDT,,T*0C
$IIMWD,,,,,03.26,N,01.68,M*55
$IIVDR,,,,,,N*0E
$IIVHW,,T,,M,06.01,N,11.13,K*50
$IIVPW,2.79,N,,*0D
$IIVTG,263.01,T,263.01,M,6.00,N,,,D*62
$IIMWV,338,R,08.16,N,A*24
$IIVWT,064,L,03.46,N,01.78,M,,*27
$IIHDT,,T*0C
$GPWCV,,N,,D*5F
$GPXTE,A,A,,R,N,D*06
$GPZDA,075518,,,,00,*46
$IIDBT,040.58,f,012.37,M,006.68,F*27
$GPGLL,6011.687,N,02526.268,E,075518,A,D*4C
$GPGSV,,,,,,,,,,,,,,,,,,,*79
$IIHDM,,M*0C
$IIHDT,,T*0C
$IIMWD,,,,,03.69,N,01.90,M*59
$IIVDR,,,,,,N*0E
$IIVHW,,T,,M,06.03,N,11.16,K*57
$IIVPW,2.43,N,,*04
$IIVTG,265.30,T,265.30,M,6.02,N,,,D*60
$IIMWV,297,T,03.30,N,A*29
$IIVWT,063,L,03.30,N,01.70,M,,*29
$IIHDT,,T*0C
$GPWCV,,N,,D*5F
$GPXTE,A,A,,R,N,D*06
$GPZDA,075520,,,,00,*4D
$IIDBT,039.36,f,012.00,M,006.48,F*27
$GPGLL,6011.687,N,02526.258,E,075520,A,D*44
$GPGSV,,,,,,,,,,,,,,,,,,,*79
$IIHDM,,M*0C
$IIHDT,,T*0C
$IIMWD,,,,,03.26,N,01.68,M*55
$IIVDR,,,,,,N*0E
$IIVHW,,T,,M,06.05,N,11.20,K*54
$IIVPW,3.92,N,,*09
$IIVTG,268.19,T,268.19,M,6.02,N,,,D*60
$IIMWV,340,R,08.16,N,A*2B
$IIVWT,062,L,03.12,N,01.61,M,,*28
$IIHDT,,T*0C
$GPWCV,,N,,D*5F
$GPXTE,A,A,,R,N,D*06
$GPZDA,075522,,,,00,*4F
$IIDBT,037.46,f,011.42,M,006.17,F*21
$GPGLL,6011.687,N,02526.252,E,075522,A,D*4C
$GPGSV,,,,,,,,,,,,,,,,,,,*79
$IIHDM,,M*0C
$IIHDT,,T*0C
$IIMWD,,,,,03.55,N,01.83,M*54
$IIVDR,,,,,,N*0E
$IIVHW,,T,,M,06.05,N,11.20,K*54
$IIVPW,2.90,N,,*0A
$IIVTG,268.50,T,268.50,M,6.08,N,,,D*6A
$IIMWV,297,T,03.34,N,A*2D
$IIVWT,063,L,03.34,N,01.72,M,,*2F
$IIHDT,,T*0C
$GPWCV,,N,,D*5F
$GPXTE,A,A,,R,N,D*06
$GPZDA,075524,,,,00,*49
$IIDBT,035.30,f,010.76,M,005.81,F*28
$GPGLL,6011.687,N,02526.245,E,075524,A,D*4C
$GPGSV,,,,,,,,,,,,,,,,,,,*79
$IIHDM,,M*0C
$IIHDT,,T*0C
$IIMWD,,,,,03.61,N,01.86,M*56
$IIVDR,,,,,,N*0E
$IIVHW,,T,,M,06.06,N,11.22,K*55
$IIVPW,1.47,N,,*03
$IIVTG,267.35,T,267.35,M,6.02,N,,,D*60
$IIMWV,332,R,08.16,N,A*2E
$IIVWT,071,L,03.98,N,02.05,M,,*29
$IIHDT,,T*0C
$GPWCV,,N,,D*5F
$GPXTE,A,A,,R,N,D*06
$GPZDA,075526,,,,00,*4B
$IIDBT,034.84,f,010.62,M,005.74,F*29
$GPGLL,6011.687,N,02526.238,E,075526,A,D*44
$GPGSV,,,,,,,,,,,,,,,,,,,*79
$IIHDM,,M*0C
$IIHDT,,T*0C
$IIMWD,,,,,04.43,N,02.28,M*56
$IIVDR,,,,,,N*0E
$IIVHW,,T,,M,06.04,N,11.18,K*5E
$IIVPW,1.78,N,,*0F
$IIVTG,265.96,T,265.96,M,6.03,N,,,D*61
$IIMWV,285,T,04.72,N,A*2B
$IIVWT,075,L,04.72,N,02.43,M,,*2C
$IIHDT,,T*0C
$GPWCV,,N,,D*5F
$GPXTE,A,A,,R,N,D*06
$GPZDA,075528,,,,00,*45
$IIDBT,036.02,f,010.98,M,005.93,F*29
$GPGLL,6011.686,N,02526.231,E,075528,A,D*42
$GPGSV,,,,,,,,,,,,,,,,,,,*79
$IIHDM,,M*0C
$IIHDT,,T*0C
$IIMWD,,,,,04.04,N,02.08,M*57
$IIVDR,,,,,,N*0E
$IIVHW,,T,,M,06.04,N,11.18,K*5E
$IIVPW,1.47,N,,*03
$IIVTG,266.79,T,266.79,M,6.01,N,,,D*63
$IIMWV,329,R,08.16,N,A*24
$IIVWT,078,L,04.31,N,02.22,M,,*21
$IIHDT,,T*0C
$GPWCV,,N,,D*5F
$GPXTE,A,A,,R,N,D*06
$GPZDA,075530,,,,00,*4C
$IIDBT,036.64,f,011.17,M,006.03,F*25
$GPGLL,6011.686,N,02526.225,E,075530,A,D*4E
$GPGSV,,,,,,,,,,,,,,,,,,,*79
$IIHDM,,M*0C
$IIHDT,,T*0C
$IIMWD,,,,,04.19,N,02.16,M*54
$IIVDR,,,,,,N*0E
$IIVHW,,T,,M,06.06,N,11.22,K*55
$IIVPW,1.55,N,,*00
$IIVTG,265.35,T,265.35,M,6.08,N,,,D*6A
$IIMWV,286,T,04.50,N,A*28
$IIVWT,074,L,04.50,N,02.32,M,,*2B
$IIHDT,,T*0C
$GPWCV,,N,,D*5F
$GPXTE,A,A,,R,N,D*06
$GPZDA,075532,,,,00,*4E
$IIDBT,038.38,f,011.70,M,006.32,F*21
$GPGLL,6011.686,N,02526.218,E,075532,A,D*42
$GPGSV,,,,,,,,,,,,,,,,,,,*79
$IIHDM,,M*0C
$IIHDT,,T*0C
$IIMWD,,,,,03.49,N,01.80,M*5A
$IIVDR,,,,,,N*0E
$IIVHW,,T,,M,06.07,N,11.24,K*52
$IIVPW,2.77,N,,*03
$IIVTG,263.44,T,263.44,M,6.09,N,,,D*6B
$IIMWV,335,R,08.55,N,A*2E
$IIVWT,068,L,03.96,N,02.04,M,,*2E
$IIHDT,,T*0C
$GPWCV,,N,,D*5F
$GPXTE,A,A,,R,N,D*06
$GPZDA,075534,,,,00,*48
$IIDBT,039.82,f,012.14,M,006.56,F*22
$GPGLL,6011.685,N,02526.211,E,075534,A,D*4E
$GPGSV,,,,,,,,,,,,,,,,,,,*79
$IIHDM,,M*0C
$IIHDT,,T*0C
$IIMWD,,,,,03.84,N,01.98,M*52
$IIVDR,,,,,,N*0E
$IIVHW,,T,,M,06.08,N,11.26,K*5F
$IIVPW,2.99,N,,*03
$IIVTG,262.71,T,262.71,M,6.10,N,,,D*63
$IIMWV,299,T,03.88,N,A*24
$IIVWT,061,L,03.88,N,02.00,M,,*2C
$IIHDT,,T*0C
$GPWCV,,N,,D*5F
$GPXTE,A,A,,R,N,D*06
$GPZDA,075536,,,,00,*4A
$IIDBT,041.10,f,012.53,M,006.77,F*26
$GPGLL,6011.685,N,02526.205,E,075536,A,D*49
$GPGSV,,,,,,,,,,,,,,,,,,,*79
$IIHDM,,M*0C
$IIHDT,,T*0C
$IIMWD,,,,,03.92,N,02.02,M*55
$IIVDR,,,,,,N*0E
$IIVHW,,T,,M,06.08,N,11.26,K*5F
$IIVPW,3.00,N,,*02
$IIVTG,261.65,T,261.65,M,6.10,N,,,D*63
$IIMWV,338,R,08.55,N,A*23
$IIVWT,060,L,03.69,N,01.90,M,,*28
$IIHDT,,T*0C
$GPWCV,,N,,D*5F
$GPXTE,A,A,,R,N,D*06
$GPZDA,075538,,,,00,*44
$IIDBT,042.15,f,012.85,M,006.94,F*26
$GPGLL,6011.684,N,02526.198,E,075538,A,D*41
$GPGSV,,,,,,,,,,,,,,,,,,,*79
$IIHDM,,M*0C
$IIHDT,,T*0C
$IIMWD,,,,,03.88,N,02.00,M*5C
$IIVDR,,,,,,N*0E
$IIVHW,,T,,M,06.08,N,11.26,K*5F
$IIVPW,2.51,N,,*07
$IIVTG,260.13,T,260.13,M,6.10,N,,,D*63
$IIMWV,293,T,04.06,N,A*2F
$IIVWT,067,L,04.06,N,02.09,M,,*22
$IIHDT,,T*0C
$GPWCV,,N,,D*5F
$GPXTE,A,A,,R,N,D*06
$GPZDA,075540,,,,00,*4B
$IIDBT,041.56,f,012.67,M,006.84,F*2F
$GPGLL,6011.684,N,02526.191,E,075540,A,D*47
$GPGSV,,,,,,,,,,,,,,,,,,,*79
$IIHDM,,M*0C
$IIHDT,,T*0C
$IIMWD,,,,,04.10,N,02.11,M*5A
$IIVDR,,,,,,N*0E
$IIVHW,,T,,M,06.07,N,11.24,K*52
$IIVPW,3.05,N,,*07
$IIVTG,259.68,T,259.68,M,6.05,N,,,D*67
$IIMWV,344,R,08.55,N,A*28
$IIVWT,047,L,03.24,N,01.67,M,,*2C
$IIHDT,,T*0C
$GPWCV,,N,,D*5F
$GPXTE,A,A,,R,N,D*06
$GPZDA,075542,,,,00,*49
$IIDBT,041.82,f,012.75,M,006.89,F*28
$GPGLL,6011.683,N,02526.185,E,075542,A,D*47
$GPGSV,,,,,,,,,,,,,,,,,,,*79
$IIHDM,,M*0C
$IIHDT,,T*0C
$IIMWD,,,,,03.49,N,01.80,M*5A
$IIVDR,,,,,,N*0E
$IIVHW,,T,,M,06.07,N,11.24,K*52
$IIVPW,3.18,N,,*0B
$IIVTG,261.39,T,261.39,M,6.09,N,,,D*6B
$IIMWV,297,T,04.08,N,A*25
$IIVWT,063,L,04.08,N,02.10,M,,*20
$IIHDT,,T*0C
$GPWCV,,N,,D*5F
$GPXTE,A,A,,R,N,D*06
$GPZDA,075544,,,,00,*4F
$IIDBT,045.14,f,013.76,M,007.43,F*26
$GPGLL,6011.683,N,02526.178,E,075544,A,D*43
$GPGSV,,,,,,,,,,,,,,,,,,,*79
$IIHDM,,M*0C
$IIHDT,,T*0C
$IIMWD,,,,,04.29,N,02.21,M*53
$IIVDR,,,,,,N*0E
$IIVHW,,T,,M,06.08,N,11.26,K*5F
$IIVPW,2.18,N,,*0A
$IIVTG,260.32,T,260.32,M,6.02,N,,,D*60
$IIMWV,334,R,08.16,N,A*28
$IIVWT,072,L,03.77,N,01.94,M,,*20
$IIHDT,,T*0C
$GPWCV,,N,,D*5F
$GPXTE,A,A,,R,N,D*06
$GPZDA,075546,,,,00,*4D
$IIDBT,047.83,f,014.58,M,007.88,F*26
$GPGLL,6011.682,N,02526.171,E,075547,A,D*48
$GPGSV,,,,,,,,,,,,,,,,,,,*79
$IIHDM,,M*0C
$IIHDT,,T*0C
$IIMWD,,,,,03.47,N,01.79,M*52
$IIVDR,,,,,,N*0E
$IIVHW,,T,,M,06.07,N,11.24,K*52
$IIVPW,2.07,N,,*04
$IIVTG,260.23,T,260.23,M,6.01,N,,,D*63
$IIMWV,281,T,03.82,N,A*27
$IIVWT,080,L,03.82,N,01.97,M,,*24
$IIHDT,,T*0C
$GPWCV,,N,,D*5F
$GPXTE,A,A,,R,N,D*06
$GPZDA,075548,,,,00,*43
$IIDBT,049.34,f,015.04,M,008.12,F*20
$GPGLL,6011.681,N,02526.165,E,075549,A,D*40
$GPGSV,,,,,,,,,,,,,,,,,,,*79
$IIHDM,,M*0C
$IIHDT,,T*0C
$IIMWD,,,,,03.03,N,01.56,M*5F
$IIVDR,,,,,,N*0E
$IIVHW,,T,,M,06.10,N,11.29,K*59
$IIVPW,3.23,N,,*03
$IIVTG,259.68,T,259.68,M,6.00,N,,,D*62
$IIMWV,340,R,08.74,N,A*2F
$IIVWT,055,L,03.65,N,01.88,M,,*2B
$IIHDT,,T*0C
$GPWCV,,N,,D*5F
$GPXTE,A,A,,R,N,D*06
$GPZDA,075550,,,,00,*4A
$IIDBT,050.29,f,015.33,M,008.28,F*29
$GPGLL,6011.681,N,02526.158,E,075551,A,D*47
$GPGSV,,,,,,,,,,,,,,,,,,,*79
$IIHDM,,M*0C
$IIHDT,,T*0C
$IIMWD,,,,,03.34,N,01.72,M*5D
$IIVDR,,,,,,N*0E
$IIVHW,,T,,M,06.10,N,11.29,K*59
$IIVPW,4.33,N,,*05
$IIVTG,258.75,T,258.75,M,6.08,N,,,D*6A
$IIMWV,312,T,03.73,N,A*22
$IIVWT,048,L,03.73,N,01.92,M,,*2B
$IIHDT,,T*0C
$GPWCV,,N,,D*5F
$GPXTE,A,A,,R,N,D*06
$GPZDA,075552,,,,00,*48
$IIDBT,051.14,f,015.59,M,008.42,F*26
$GPGLL,6011.680,N,02526.152,E,075553,A,D*4E
$GPGSV,,,,,,,,,,,,,,,,,,,*79
$IIHDM,,M*0C
$IIHDT,,T*0C
$IIMWD,,,,,03.34,N,01.72,M*5D
$IIVDR,,,,,,N*0E
$IIVHW,,T,,M,06.10,N,11.29,K*59
$IIVPW,4.13,N,,*07
$IIVTG,258.89,T,258.89,M,6.07,N,,,D*65
$IIMWV,342,R,08.74,N,A*2D
$IIVWT,051,L,03.55,N,01.83,M,,*27
$IIHDT,,T*0C
$GPWCV,,N,,D*5F
$GPXTE,A,A,,R,N,D*06
$GPZDA,075554,,,,00,*4E
$IIDBT,051.96,f,015.84,M,008.56,F*29
$GPGLL,6011.679,N,02526.145,E,075555,A,D*48
$GPGSV,,,,,,,,,,,,,,,,,,,*79
$IIHDM,,M*0C
$IIHDT,,T*0C
$IIMWD,,,,,03.98,N,02.05,M*58
$IIVDR,,,,,,N*0E
$IIVHW,,T,,M,06.08,N,11.26,K*5F
$IIVPW,3.85,N,,*0F
$IIVTG,259.22,T,259.22,M,6.07,N,,,D*65
$IIMWV,307,T,04.06,N,A*23
$IIVWT,053,L,04.06,N,02.09,M,,*25
$IIHDT,,T*0C
$GPWCV,,N,,D*5F
$GPXTE,A,A,,R,N,D*06
$GPZDA,075556,,,,00,*4C
$IIDBT,052.88,f,016.12,M,008.71,F*2C
$GPGLL,6011.679,N,02526.138,E,075557,A,D*40
$GPGSV,,,,,,,,,,,,,,,,,,,*79
$IIHDM,,M*0C
$IIHDT,,T*0C
$IIMWD,,,,,03.79,N,01.95,M*5D
$IIVDR,,,,,,N*0E
$IIVHW,,T,,M,06.07,N,11.24,K*52
$IIVPW,4.09,N,,*0C
$IIVTG,260.78,T,260.78,M,6.07,N,,,D*65
$IIMWV,340,R,09.13,N,A*2F
$IIVWT,052,L,03.90,N,02.01,M,,*24
$IIHDT,,T*0C
$GPWCV,,N,,D*5F
$GPXTE,A,A,,R,N,D*06
$GPZDA,075558,,,,00,*42
$IIDBT,054.16,f,016.51,M,008.92,F*27
$GPGLL,6011.678,N,02526.132,E,075559,A,D*45
$GPGSV,,,,,,,,,,,,,,,,,,,*79
$IIHDM,,M*0C
$IIHDT,,T*0C
$IIMWD,,,,,04.87,N,02.51,M*50
$IIVDR,,,,,,N*0E
$IIVHW,,T,,M,06.07,N,11.24,K*52
$IIVPW,3.36,N,,*07
$IIVTG,261.92,T,261.92,M,6.02,N,,,D*60
$IIMWV,301,T,04.70,N,A*24
$IIVWT,059,L,04.70,N,02.42,M,,*21
